{
  "generated_at": "2025-11-08T06:04:26.873Z",
  "stats": {
    "total_geographic_locations": 9732,
    "idf_communes": 1340,
    "existing_hugo_pages": 554,
    "missing_pages": 812,
    "extra_pages": 31,
    "by_department": {
      "75": 43,
      "77": 516,
      "78": 267,
      "91": 197,
      "92": 40,
      "93": 41,
      "94": 49,
      "95": 187
    }
  },
  "missing_pages": [
    {
      "slug": "abbeville-la-riviere",
      "name": "Abbéville-la-Rivière",
      "postal_codes": [
        "91150"
      ],
      "department": "91",
      "latitude": 48.3463691,
      "longitude": 2.16588,
      "insee_code": "91726"
    },
    {
      "slug": "ableiges",
      "name": "Ableiges",
      "postal_codes": [
        "95450"
      ],
      "department": "95",
      "latitude": 49.079236,
      "longitude": 1.9943008,
      "insee_code": "95121"
    },
    {
      "slug": "acheres-la-foret",
      "name": "Achères-la-Forêt",
      "postal_codes": [
        "77760"
      ],
      "department": "77",
      "latitude": 48.3574718,
      "longitude": 2.5604895,
      "insee_code": "77516"
    },
    {
      "slug": "adainville",
      "name": "Adainville",
      "postal_codes": [
        "78113"
      ],
      "department": "78",
      "latitude": 48.9978249,
      "longitude": 1.6077081,
      "insee_code": "78710"
    },
    {
      "slug": "aigremont",
      "name": "Aigremont",
      "postal_codes": [
        "78240"
      ],
      "department": "78",
      "latitude": 48.9038563,
      "longitude": 2.0190194,
      "insee_code": "78941"
    },
    {
      "slug": "aincourt",
      "name": "Aincourt",
      "postal_codes": [
        "95510"
      ],
      "department": "95",
      "latitude": 49.0719037,
      "longitude": 1.771976,
      "insee_code": "95162"
    },
    {
      "slug": "allainville",
      "name": "Allainville",
      "postal_codes": [
        "78660"
      ],
      "department": "78",
      "latitude": 48.4568654,
      "longitude": 1.8959608,
      "insee_code": "78735"
    },
    {
      "slug": "ambleville",
      "name": "Ambleville",
      "postal_codes": [
        "95710"
      ],
      "department": "95",
      "latitude": 49.1478623,
      "longitude": 1.6965871,
      "insee_code": "95146"
    },
    {
      "slug": "amenucourt",
      "name": "Amenucourt",
      "postal_codes": [
        "95510"
      ],
      "department": "95",
      "latitude": 49.1067288,
      "longitude": 1.6432239,
      "insee_code": "95069"
    },
    {
      "slug": "amillis",
      "name": "Amillis",
      "postal_codes": [
        "77120"
      ],
      "department": "77",
      "latitude": 48.8331038,
      "longitude": 2.7329708,
      "insee_code": "77600"
    },
    {
      "slug": "amponville",
      "name": "Amponville",
      "postal_codes": [
        "77760"
      ],
      "department": "77",
      "latitude": 48.2791098,
      "longitude": 2.5319853,
      "insee_code": "77293"
    },
    {
      "slug": "andelu",
      "name": "Andelu",
      "postal_codes": [
        "78770"
      ],
      "department": "78",
      "latitude": 48.880309,
      "longitude": 1.8258172,
      "insee_code": "78959"
    },
    {
      "slug": "andrezel",
      "name": "Andrezel",
      "postal_codes": [
        "77390"
      ],
      "department": "77",
      "latitude": 48.6072564,
      "longitude": 2.8830036,
      "insee_code": "77563"
    },
    {
      "slug": "angervilliers",
      "name": "Angervilliers",
      "postal_codes": [
        "91470"
      ],
      "department": "91",
      "latitude": 48.59263,
      "longitude": 2.06433,
      "insee_code": "91738"
    },
    {
      "slug": "arbonne-la-foret",
      "name": "Arbonne-la-Forêt",
      "postal_codes": [
        "77630"
      ],
      "department": "77",
      "latitude": 48.4123357,
      "longitude": 2.5667447,
      "insee_code": "77517"
    },
    {
      "slug": "argentieres",
      "name": "Argentières",
      "postal_codes": [
        "77390"
      ],
      "department": "77",
      "latitude": 48.6602359,
      "longitude": 2.857173,
      "insee_code": "77530"
    },
    {
      "slug": "armentieres-en-brie",
      "name": "Armentières-en-Brie",
      "postal_codes": [
        "77440"
      ],
      "department": "77",
      "latitude": 48.9786624,
      "longitude": 3.0216469,
      "insee_code": "77252"
    },
    {
      "slug": "arnouville-les-mantes",
      "name": "Arnouville-lès-Mantes",
      "postal_codes": [
        "78790"
      ],
      "department": "78",
      "latitude": 48.9095362,
      "longitude": 1.7295451,
      "insee_code": "78801"
    },
    {
      "slug": "arrancourt",
      "name": "Arrancourt",
      "postal_codes": [
        "91690"
      ],
      "department": "91",
      "latitude": 48.3423097,
      "longitude": 2.1618086,
      "insee_code": "91789"
    },
    {
      "slug": "arronville",
      "name": "Arronville",
      "postal_codes": [
        "95810"
      ],
      "department": "95",
      "latitude": 49.1816997,
      "longitude": 2.1137236,
      "insee_code": "95076"
    },
    {
      "slug": "arthies",
      "name": "Arthies",
      "postal_codes": [
        "95420"
      ],
      "department": "95",
      "latitude": 49.0940316,
      "longitude": 1.7900339,
      "insee_code": "95088"
    },
    {
      "slug": "arville",
      "name": "Arville",
      "postal_codes": [
        "77890"
      ],
      "department": "77",
      "latitude": 48.1878307,
      "longitude": 2.5480778,
      "insee_code": "77669"
    },
    {
      "slug": "attainville",
      "name": "Attainville",
      "postal_codes": [
        "95570"
      ],
      "department": "95",
      "latitude": 49.0578463,
      "longitude": 2.3446221,
      "insee_code": "95139"
    },
    {
      "slug": "aubepierre-ozouer-le-repos",
      "name": "Aubepierre-Ozouer-le-Repos",
      "postal_codes": [
        "77720"
      ],
      "department": "77",
      "latitude": 48.6188874,
      "longitude": 2.9127193,
      "insee_code": "77213"
    },
    {
      "slug": "auffargis",
      "name": "Auffargis",
      "postal_codes": [
        "78610"
      ],
      "department": "78",
      "latitude": 48.6998475,
      "longitude": 1.8861417,
      "insee_code": "78863"
    },
    {
      "slug": "aufferville",
      "name": "Aufferville",
      "postal_codes": [
        "77570"
      ],
      "department": "77",
      "latitude": 48.2146199,
      "longitude": 2.6091258,
      "insee_code": "77199"
    },
    {
      "slug": "auffreville-brasseuil",
      "name": "Auffreville-Brasseuil",
      "postal_codes": [
        "78930"
      ],
      "department": "78",
      "latitude": 48.9548027,
      "longitude": 1.7102362,
      "insee_code": "78798"
    },
    {
      "slug": "augers-en-brie",
      "name": "Augers-en-Brie",
      "postal_codes": [
        "77560"
      ],
      "department": "77",
      "latitude": 48.6440029,
      "longitude": 3.3351026,
      "insee_code": "77277"
    },
    {
      "slug": "aulnay-sur-mauldre",
      "name": "Aulnay-sur-Mauldre",
      "postal_codes": [
        "78126"
      ],
      "department": "78",
      "latitude": 48.9296863,
      "longitude": 1.8411487,
      "insee_code": "78763"
    },
    {
      "slug": "aulnoy",
      "name": "Aulnoy",
      "postal_codes": [
        "77120"
      ],
      "department": "77",
      "latitude": 48.8406836,
      "longitude": 3.0950173,
      "insee_code": "77485"
    },
    {
      "slug": "auteuil",
      "name": "Auteuil",
      "postal_codes": [
        "78770"
      ],
      "department": "78",
      "latitude": 48.8414803,
      "longitude": 1.8219502,
      "insee_code": "78909"
    },
    {
      "slug": "authon-la-plaine",
      "name": "Authon-la-Plaine",
      "postal_codes": [
        "91410"
      ],
      "department": "91",
      "latitude": 48.4515862,
      "longitude": 1.9579743,
      "insee_code": "91768"
    },
    {
      "slug": "autouillet",
      "name": "Autouillet",
      "postal_codes": [
        "78770"
      ],
      "department": "78",
      "latitude": 48.847801,
      "longitude": 1.8029969,
      "insee_code": "78777"
    },
    {
      "slug": "auvernaux",
      "name": "Auvernaux",
      "postal_codes": [
        "91830"
      ],
      "department": "91",
      "latitude": 48.7107028,
      "longitude": 2.2177858,
      "insee_code": "91761"
    },
    {
      "slug": "auvers-saint-georges",
      "name": "Auvers-Saint-Georges",
      "postal_codes": [
        "91580"
      ],
      "department": "91",
      "latitude": 48.5143426,
      "longitude": 2.3419755,
      "insee_code": "91760"
    },
    {
      "slug": "avernes",
      "name": "Avernes",
      "postal_codes": [
        "95450"
      ],
      "department": "95",
      "latitude": 49.0867842,
      "longitude": 1.8727877,
      "insee_code": "95163"
    },
    {
      "slug": "avrainville",
      "name": "Avrainville",
      "postal_codes": [
        "91630"
      ],
      "department": "91",
      "latitude": 48.5518339,
      "longitude": 2.2417785,
      "insee_code": "91727"
    },
    {
      "slug": "baby",
      "name": "Baby",
      "postal_codes": [
        "77480"
      ],
      "department": "77",
      "latitude": 48.8723413,
      "longitude": 2.7781039,
      "insee_code": "77383"
    },
    {
      "slug": "bagneaux-sur-loing",
      "name": "Bagneaux-sur-Loing",
      "postal_codes": [
        "77167"
      ],
      "department": "77",
      "latitude": 48.2281947,
      "longitude": 2.7047998,
      "insee_code": "77524"
    },
    {
      "slug": "baillet-en-france",
      "name": "Baillet-en-France",
      "postal_codes": [
        "95560"
      ],
      "department": "95",
      "latitude": 49.0632853,
      "longitude": 2.3064425,
      "insee_code": "95024"
    },
    {
      "slug": "balloy",
      "name": "Balloy",
      "postal_codes": [
        "77118"
      ],
      "department": "77",
      "latitude": 48.3988172,
      "longitude": 3.1467101,
      "insee_code": "77441"
    },
    {
      "slug": "bannost-villegagnon",
      "name": "Bannost-Villegagnon",
      "postal_codes": [
        "77970"
      ],
      "department": "77",
      "latitude": 48.6780251,
      "longitude": 3.192086,
      "insee_code": "77542"
    },
    {
      "slug": "banthelu",
      "name": "Banthelu",
      "postal_codes": [
        "95420"
      ],
      "department": "95",
      "latitude": 49.1266301,
      "longitude": 1.8148772,
      "insee_code": "95187"
    },
    {
      "slug": "barbey",
      "name": "Barbey",
      "postal_codes": [
        "77130"
      ],
      "department": "77",
      "latitude": 48.3618796,
      "longitude": 3.0705397,
      "insee_code": "77625"
    },
    {
      "slug": "barbizon",
      "name": "Barbizon",
      "postal_codes": [
        "77630"
      ],
      "department": "77",
      "latitude": 48.8844287,
      "longitude": 2.591598,
      "insee_code": "77500"
    },
    {
      "slug": "barcy",
      "name": "Barcy",
      "postal_codes": [
        "77910"
      ],
      "department": "77",
      "latitude": 49.0177448,
      "longitude": 2.8811183,
      "insee_code": "77514"
    },
    {
      "slug": "bassevelle",
      "name": "Bassevelle",
      "postal_codes": [
        "77750"
      ],
      "department": "77",
      "latitude": 48.9271827,
      "longitude": 3.2877268,
      "insee_code": "77191"
    },
    {
      "slug": "baulne",
      "name": "Baulne",
      "postal_codes": [
        "91590"
      ],
      "department": "91",
      "latitude": 48.4931951,
      "longitude": 2.3598564,
      "insee_code": "91832"
    },
    {
      "slug": "bazainville",
      "name": "Bazainville",
      "postal_codes": [
        "78550"
      ],
      "department": "78",
      "latitude": 48.8043512,
      "longitude": 1.668678,
      "insee_code": "78712"
    },
    {
      "slug": "bazemont",
      "name": "Bazemont",
      "postal_codes": [
        "78580"
      ],
      "department": "78",
      "latitude": 48.9283466,
      "longitude": 1.8649214,
      "insee_code": "78894"
    },
    {
      "slug": "bazoches-les-bray",
      "name": "Bazoches-lès-Bray",
      "postal_codes": [
        "77118"
      ],
      "department": "77",
      "latitude": 48.3986418,
      "longitude": 3.188342,
      "insee_code": "77354"
    },
    {
      "slug": "bazoches-sur-guyonne",
      "name": "Bazoches-sur-Guyonne",
      "postal_codes": [
        "78490"
      ],
      "department": "78",
      "latitude": 48.7778977,
      "longitude": 1.8601198,
      "insee_code": "78822"
    },
    {
      "slug": "beauchery-saint-martin",
      "name": "Beauchery-Saint-Martin",
      "postal_codes": [
        "77560"
      ],
      "department": "77",
      "latitude": 48.615496,
      "longitude": 3.403761,
      "insee_code": "77493"
    },
    {
      "slug": "beaumont-du-gatinais",
      "name": "Beaumont-du-Gâtinais",
      "postal_codes": [
        "77890"
      ],
      "department": "77",
      "latitude": 48.139334,
      "longitude": 2.4784171,
      "insee_code": "77227"
    },
    {
      "slug": "beautheil",
      "name": "Beautheil",
      "postal_codes": [
        "77120"
      ],
      "department": "77",
      "latitude": 48.7626577,
      "longitude": 3.0866676,
      "insee_code": "77606"
    },
    {
      "slug": "beauvoir",
      "name": "BEAUVOIR",
      "postal_codes": [
        "77390"
      ],
      "department": "77",
      "latitude": 48.6449274,
      "longitude": 2.8621065,
      "insee_code": null
    },
    {
      "slug": "behoust",
      "name": "Béhoust",
      "postal_codes": [
        "78910"
      ],
      "department": "78",
      "latitude": 48.8307077,
      "longitude": 1.7214396,
      "insee_code": "78725"
    },
    {
      "slug": "bellefontaine",
      "name": "BELLEFONTAINE",
      "postal_codes": [
        "95270"
      ],
      "department": "95",
      "latitude": 49.0994101,
      "longitude": 2.4657434,
      "insee_code": null
    },
    {
      "slug": "bellot",
      "name": "Bellot",
      "postal_codes": [
        "77510"
      ],
      "department": "77",
      "latitude": 48.8570412,
      "longitude": 3.3182562,
      "insee_code": "77487"
    },
    {
      "slug": "belloy-en-france",
      "name": "Belloy-en-France",
      "postal_codes": [
        "95270"
      ],
      "department": "95",
      "latitude": 48.9695217,
      "longitude": 2.4012035,
      "insee_code": "95140"
    },
    {
      "slug": "bennecourt",
      "name": "Bennecourt",
      "postal_codes": [
        "78270"
      ],
      "department": "78",
      "latitude": 49.0398776,
      "longitude": 1.5617924,
      "insee_code": "78787"
    },
    {
      "slug": "bernay-vilbert",
      "name": "Bernay-Vilbert",
      "postal_codes": [
        "77540"
      ],
      "department": "77",
      "latitude": 48.8804099,
      "longitude": 2.6912817,
      "insee_code": "77400"
    },
    {
      "slug": "bernes-sur-oise",
      "name": "Bernes-sur-Oise",
      "postal_codes": [
        "95340"
      ],
      "department": "95",
      "latitude": 49.1620172,
      "longitude": 2.2985653,
      "insee_code": "95113"
    },
    {
      "slug": "berville",
      "name": "Berville",
      "postal_codes": [
        "95810"
      ],
      "department": "95",
      "latitude": 49.19182,
      "longitude": 2.0683446,
      "insee_code": "95131"
    },
    {
      "slug": "bethemont-la-foret",
      "name": "Béthemont-la-Forêt",
      "postal_codes": [
        "95840"
      ],
      "department": "95",
      "latitude": 49.0526903,
      "longitude": 2.2512954,
      "insee_code": "95147"
    },
    {
      "slug": "beton-bazoches",
      "name": "Beton-Bazoches",
      "postal_codes": [
        "77320"
      ],
      "department": "77",
      "latitude": 48.701901,
      "longitude": 3.2443578,
      "insee_code": "77238"
    },
    {
      "slug": "bezalles",
      "name": "Bezalles",
      "postal_codes": [
        "77970"
      ],
      "department": "77",
      "latitude": 48.9053221,
      "longitude": 3.1002803,
      "insee_code": "77640"
    },
    {
      "slug": "blandy",
      "name": "Blandy",
      "postal_codes": [
        "91150",
        "77115"
      ],
      "department": "91",
      "latitude": 48.5674007,
      "longitude": 2.7824287,
      "insee_code": "91734"
    },
    {
      "slug": "blaru",
      "name": "Blaru",
      "postal_codes": [
        "78270"
      ],
      "department": "78",
      "latitude": 49.0490725,
      "longitude": 1.4784398,
      "insee_code": "78797"
    },
    {
      "slug": "blennes",
      "name": "Blennes",
      "postal_codes": [
        "77940"
      ],
      "department": "77",
      "latitude": 48.2576831,
      "longitude": 3.023088,
      "insee_code": "77232"
    },
    {
      "slug": "boigneville",
      "name": "Boigneville",
      "postal_codes": [
        "91720"
      ],
      "department": "91",
      "latitude": 48.3420887,
      "longitude": 2.378956,
      "insee_code": "91766"
    },
    {
      "slug": "boinville-en-mantois",
      "name": "Boinville-en-Mantois",
      "postal_codes": [
        "78930"
      ],
      "department": "78",
      "latitude": 48.9298152,
      "longitude": 1.7568301,
      "insee_code": "78707"
    },
    {
      "slug": "boinville-le-gaillard",
      "name": "Boinville-le-Gaillard",
      "postal_codes": [
        "78660"
      ],
      "department": "78",
      "latitude": 48.4938398,
      "longitude": 1.8705744,
      "insee_code": "78749"
    },
    {
      "slug": "boinvilliers",
      "name": "Boinvilliers",
      "postal_codes": [
        "78200"
      ],
      "department": "78",
      "latitude": 48.9173328,
      "longitude": 1.661586,
      "insee_code": "78788"
    },
    {
      "slug": "bois-d'arcy",
      "name": "BOIS-D'ARCY",
      "postal_codes": [
        "78390"
      ],
      "department": "78",
      "latitude": 48.799856,
      "longitude": 2.023607,
      "insee_code": null
    },
    {
      "slug": "bois-herpin",
      "name": "Bois-Herpin",
      "postal_codes": [
        "91150"
      ],
      "department": "91",
      "latitude": 48.6948889,
      "longitude": 2.499842,
      "insee_code": "91800"
    },
    {
      "slug": "boisdon",
      "name": "Boisdon",
      "postal_codes": [
        "77970"
      ],
      "department": "77",
      "latitude": 48.6845811,
      "longitude": 3.2250336,
      "insee_code": "77427"
    },
    {
      "slug": "boisemont",
      "name": "Boisemont",
      "postal_codes": [
        "95000"
      ],
      "department": "95",
      "latitude": 49.0223999,
      "longitude": 2.0026375,
      "insee_code": "95144"
    },
    {
      "slug": "boissets",
      "name": "Boissets",
      "postal_codes": [
        "78910"
      ],
      "department": "78",
      "latitude": 48.8618662,
      "longitude": 1.5853896,
      "insee_code": "78805"
    },
    {
      "slug": "boissettes",
      "name": "Boissettes",
      "postal_codes": [
        "77350"
      ],
      "department": "77",
      "latitude": 48.5205355,
      "longitude": 2.610766,
      "insee_code": "77463"
    },
    {
      "slug": "boissise-la-bertrand",
      "name": "Boissise-la-Bertrand",
      "postal_codes": [
        "77350"
      ],
      "department": "77",
      "latitude": 48.526667,
      "longitude": 2.5883886,
      "insee_code": "77332"
    },
    {
      "slug": "boissy-aux-cailles",
      "name": "Boissy-aux-Cailles",
      "postal_codes": [
        "77760"
      ],
      "department": "77",
      "latitude": 48.4832952,
      "longitude": 2.7024908,
      "insee_code": "77590"
    },
    {
      "slug": "boissy-l-aillerie",
      "name": "Boissy-l\\'Aillerie",
      "postal_codes": [
        "95650"
      ],
      "department": "95",
      "latitude": 49.075815,
      "longitude": 2.0251177,
      "insee_code": "95105"
    },
    {
      "slug": "boissy-l'aillerie",
      "name": "BOISSY-L'AILLERIE",
      "postal_codes": [
        "95650"
      ],
      "department": "95",
      "latitude": 49.0770562,
      "longitude": 2.0291683,
      "insee_code": null
    },
    {
      "slug": "boissy-la-riviere",
      "name": "Boissy-la-Rivière",
      "postal_codes": [
        "91690"
      ],
      "department": "91",
      "latitude": 48.374679,
      "longitude": 2.1530914,
      "insee_code": "91769"
    },
    {
      "slug": "boissy-le-cutte",
      "name": "Boissy-le-Cutté",
      "postal_codes": [
        "91590"
      ],
      "department": "91",
      "latitude": 48.4690893,
      "longitude": 2.2821732,
      "insee_code": "91743"
    },
    {
      "slug": "boissy-le-sec",
      "name": "Boissy-le-Sec",
      "postal_codes": [
        "91870"
      ],
      "department": "91",
      "latitude": 48.4783092,
      "longitude": 2.0898454,
      "insee_code": "91862"
    },
    {
      "slug": "boissy-mauvoisin",
      "name": "Boissy-Mauvoisin",
      "postal_codes": [
        "78200"
      ],
      "department": "78",
      "latitude": 48.9633209,
      "longitude": 1.5775544,
      "insee_code": "78705"
    },
    {
      "slug": "boissy-sans-avoir",
      "name": "Boissy-sans-Avoir",
      "postal_codes": [
        "78490"
      ],
      "department": "78",
      "latitude": 48.8215819,
      "longitude": 1.759453,
      "insee_code": "78890"
    },
    {
      "slug": "boitron",
      "name": "Boitron",
      "postal_codes": [
        "77750"
      ],
      "department": "77",
      "latitude": 48.8959169,
      "longitude": 3.2598978,
      "insee_code": "77671"
    },
    {
      "slug": "bombon",
      "name": "Bombon",
      "postal_codes": [
        "77720"
      ],
      "department": "77",
      "latitude": 48.5724553,
      "longitude": 2.8582349,
      "insee_code": "77389"
    },
    {
      "slug": "bonnelles",
      "name": "Bonnelles",
      "postal_codes": [
        "78830"
      ],
      "department": "78",
      "latitude": 48.6182,
      "longitude": 2.02973,
      "insee_code": "78853"
    },
    {
      "slug": "bonneuil-en-france",
      "name": "Bonneuil-en-France",
      "postal_codes": [
        "95500"
      ],
      "department": "95",
      "latitude": 48.974285,
      "longitude": 2.4315754,
      "insee_code": "95053"
    },
    {
      "slug": "bouafle",
      "name": "Bouafle",
      "postal_codes": [
        "78410"
      ],
      "department": "78",
      "latitude": 48.9644944,
      "longitude": 1.9001777,
      "insee_code": "78789"
    },
    {
      "slug": "bougligny",
      "name": "Bougligny",
      "postal_codes": [
        "77570"
      ],
      "department": "77",
      "latitude": 48.1955723,
      "longitude": 2.6575761,
      "insee_code": "77538"
    },
    {
      "slug": "boulancourt",
      "name": "Boulancourt",
      "postal_codes": [
        "77760"
      ],
      "department": "77",
      "latitude": 48.8746534,
      "longitude": 3.2505332,
      "insee_code": "77510"
    },
    {
      "slug": "bouleurs",
      "name": "Bouleurs",
      "postal_codes": [
        "77580"
      ],
      "department": "77",
      "latitude": 48.8587598,
      "longitude": 2.907205,
      "insee_code": "77402"
    },
    {
      "slug": "boullay-les-troux",
      "name": "Boullay-les-Troux",
      "postal_codes": [
        "91470"
      ],
      "department": "91",
      "latitude": 48.6790214,
      "longitude": 2.0486843,
      "insee_code": "91842"
    },
    {
      "slug": "bouqueval",
      "name": "Bouqueval",
      "postal_codes": [
        "95720"
      ],
      "department": "95",
      "latitude": 49.0237371,
      "longitude": 2.4258022,
      "insee_code": "95191"
    },
    {
      "slug": "bouray-sur-juine",
      "name": "Bouray-sur-Juine",
      "postal_codes": [
        "91850"
      ],
      "department": "91",
      "latitude": 48.5207694,
      "longitude": 2.299413,
      "insee_code": "91818"
    },
    {
      "slug": "bourdonne",
      "name": "Bourdonné",
      "postal_codes": [
        "78113"
      ],
      "department": "78",
      "latitude": 48.756819,
      "longitude": 1.6644208,
      "insee_code": "78738"
    },
    {
      "slug": "boutervilliers",
      "name": "Boutervilliers",
      "postal_codes": [
        "91150"
      ],
      "department": "91",
      "latitude": 48.4530202,
      "longitude": 2.0560804,
      "insee_code": "91782"
    },
    {
      "slug": "boutigny",
      "name": "Boutigny",
      "postal_codes": [
        "77470"
      ],
      "department": "77",
      "latitude": 48.9120338,
      "longitude": 2.9205881,
      "insee_code": "77456"
    },
    {
      "slug": "bouville",
      "name": "Bouville",
      "postal_codes": [
        "91880"
      ],
      "department": "91",
      "latitude": 48.4468768,
      "longitude": 2.2926045,
      "insee_code": "91786"
    },
    {
      "slug": "bransles",
      "name": "Bransles",
      "postal_codes": [
        "77620"
      ],
      "department": "77",
      "latitude": 48.1497235,
      "longitude": 2.7983174,
      "insee_code": "77557"
    },
    {
      "slug": "bray-et-lu",
      "name": "Bray-et-Lû",
      "postal_codes": [
        "95710"
      ],
      "department": "95",
      "latitude": 49.1395811,
      "longitude": 1.6585408,
      "insee_code": "95065"
    },
    {
      "slug": "breancon",
      "name": "Bréançon",
      "postal_codes": [
        "95640"
      ],
      "department": "95",
      "latitude": 49.1435476,
      "longitude": 2.0165931,
      "insee_code": "95040"
    },
    {
      "slug": "breau",
      "name": "Bréau",
      "postal_codes": [
        "77720"
      ],
      "department": "77",
      "latitude": 48.6539528,
      "longitude": 2.9442187,
      "insee_code": "77325"
    },
    {
      "slug": "breuil-bois-robert",
      "name": "Breuil-Bois-Robert",
      "postal_codes": [
        "78930"
      ],
      "department": "78",
      "latitude": 48.9445377,
      "longitude": 1.7151446,
      "insee_code": "78748"
    },
    {
      "slug": "breux-jouy",
      "name": "Breux-Jouy",
      "postal_codes": [
        "91650"
      ],
      "department": "91",
      "latitude": 48.5592398,
      "longitude": 2.1558194,
      "insee_code": "91758"
    },
    {
      "slug": "breval",
      "name": "Bréval",
      "postal_codes": [
        "78980"
      ],
      "department": "78",
      "latitude": 48.9447453,
      "longitude": 1.5331842,
      "insee_code": "78745"
    },
    {
      "slug": "brieres-les-scelles",
      "name": "Brières-les-Scellés",
      "postal_codes": [
        "91150"
      ],
      "department": "91",
      "latitude": 48.4528839,
      "longitude": 2.1669563,
      "insee_code": "91823"
    },
    {
      "slug": "brignancourt",
      "name": "Brignancourt",
      "postal_codes": [
        "95640"
      ],
      "department": "95",
      "latitude": 49.1374735,
      "longitude": 1.9436494,
      "insee_code": "95049"
    },
    {
      "slug": "brouy",
      "name": "Brouy",
      "postal_codes": [
        "91150"
      ],
      "department": "91",
      "latitude": 48.3165765,
      "longitude": 2.2796982,
      "insee_code": "91868"
    },
    {
      "slug": "brueil-en-vexin",
      "name": "Brueil-en-Vexin",
      "postal_codes": [
        "78440"
      ],
      "department": "78",
      "latitude": 49.0311665,
      "longitude": 1.8172217,
      "insee_code": "78734"
    },
    {
      "slug": "buchelay",
      "name": "Buchelay",
      "postal_codes": [
        "78200"
      ],
      "department": "78",
      "latitude": 48.9793554,
      "longitude": 1.6716534,
      "insee_code": "78809"
    },
    {
      "slug": "buhy",
      "name": "Buhy",
      "postal_codes": [
        "95770"
      ],
      "department": "95",
      "latitude": 49.1930515,
      "longitude": 1.6928532,
      "insee_code": "95168"
    },
    {
      "slug": "bullion",
      "name": "Bullion",
      "postal_codes": [
        "78830"
      ],
      "department": "78",
      "latitude": 48.6221663,
      "longitude": 1.9945126,
      "insee_code": "78861"
    },
    {
      "slug": "buno-bonnevaux",
      "name": "Buno-Bonnevaux",
      "postal_codes": [
        "91720"
      ],
      "department": "91",
      "latitude": 48.3901649,
      "longitude": 2.3904733,
      "insee_code": "91878"
    },
    {
      "slug": "burcy",
      "name": "Burcy",
      "postal_codes": [
        "77890"
      ],
      "department": "77",
      "latitude": 48.2382411,
      "longitude": 2.522538,
      "insee_code": "77443"
    },
    {
      "slug": "bussieres",
      "name": "BUSSIERES",
      "postal_codes": [
        "77750"
      ],
      "department": "77",
      "latitude": 48.9260523,
      "longitude": 3.2420827,
      "insee_code": null
    },
    {
      "slug": "bussy-saint-martin",
      "name": "Bussy-Saint-Martin",
      "postal_codes": [
        "77600"
      ],
      "department": "77",
      "latitude": 48.8485248,
      "longitude": 2.6921301,
      "insee_code": "77683"
    },
    {
      "slug": "buthiers",
      "name": "Buthiers",
      "postal_codes": [
        "77760"
      ],
      "department": "77",
      "latitude": 48.3122523,
      "longitude": 2.6413474,
      "insee_code": "77418"
    },
    {
      "slug": "butry-sur-oise",
      "name": "Butry-sur-Oise",
      "postal_codes": [
        "95430"
      ],
      "department": "95",
      "latitude": 49.0856723,
      "longitude": 2.1979556,
      "insee_code": "95036"
    },
    {
      "slug": "carnetin",
      "name": "Carnetin",
      "postal_codes": [
        "77400"
      ],
      "department": "77",
      "latitude": 48.9006464,
      "longitude": 2.7046898,
      "insee_code": "77212"
    },
    {
      "slug": "cely",
      "name": "Cély",
      "postal_codes": [
        "77930"
      ],
      "department": "77",
      "latitude": 48.4590138,
      "longitude": 2.5326635,
      "insee_code": "77246"
    },
    {
      "slug": "cernay-la-ville",
      "name": "Cernay-la-Ville",
      "postal_codes": [
        "78720"
      ],
      "department": "78",
      "latitude": 48.6731134,
      "longitude": 1.974341,
      "insee_code": "78736"
    },
    {
      "slug": "cerneux",
      "name": "Cerneux",
      "postal_codes": [
        "77320"
      ],
      "department": "77",
      "latitude": 48.696314,
      "longitude": 3.346644,
      "insee_code": "77527"
    },
    {
      "slug": "cessoy-en-montois",
      "name": "Cessoy-en-Montois",
      "postal_codes": [
        "77520"
      ],
      "department": "77",
      "latitude": 48.5032493,
      "longitude": 3.1458602,
      "insee_code": "77358"
    },
    {
      "slug": "chailly-en-biere",
      "name": "Chailly-en-Bière",
      "postal_codes": [
        "77930"
      ],
      "department": "77",
      "latitude": 48.4599439,
      "longitude": 2.5751324,
      "insee_code": "77496"
    },
    {
      "slug": "chailly-en-brie",
      "name": "Chailly-en-Brie",
      "postal_codes": [
        "77120"
      ],
      "department": "77",
      "latitude": 48.7910283,
      "longitude": 3.1247775,
      "insee_code": "77678"
    },
    {
      "slug": "chaintreaux",
      "name": "Chaintreaux",
      "postal_codes": [
        "77460"
      ],
      "department": "77",
      "latitude": 48.1885361,
      "longitude": 2.7616605,
      "insee_code": "77602"
    },
    {
      "slug": "chalautre-la-grande",
      "name": "Chalautre-la-Grande",
      "postal_codes": [
        "77171"
      ],
      "department": "77",
      "latitude": 48.5418032,
      "longitude": 3.4595997,
      "insee_code": "77371"
    },
    {
      "slug": "chalautre-la-petite",
      "name": "Chalautre-la-Petite",
      "postal_codes": [
        "77160"
      ],
      "department": "77",
      "latitude": 48.7631645,
      "longitude": 2.678917,
      "insee_code": "77330"
    },
    {
      "slug": "chalifert",
      "name": "Chalifert",
      "postal_codes": [
        "77144"
      ],
      "department": "77",
      "latitude": 48.8896421,
      "longitude": 2.7725465,
      "insee_code": "77228"
    },
    {
      "slug": "chalmaison",
      "name": "Chalmaison",
      "postal_codes": [
        "77650"
      ],
      "department": "77",
      "latitude": 48.4805323,
      "longitude": 3.2501275,
      "insee_code": "77464"
    },
    {
      "slug": "chalo-saint-mars",
      "name": "Chalo-Saint-Mars",
      "postal_codes": [
        "91780"
      ],
      "department": "91",
      "latitude": 48.4275765,
      "longitude": 2.0646087,
      "insee_code": "91853"
    },
    {
      "slug": "chalou-moulineux",
      "name": "Chalou-Moulineux",
      "postal_codes": [
        "91740"
      ],
      "department": "91",
      "latitude": 48.385561,
      "longitude": 2.0172431,
      "insee_code": "91855"
    },
    {
      "slug": "chamarande",
      "name": "Chamarande",
      "postal_codes": [
        "91730"
      ],
      "department": "91",
      "latitude": 48.5143361,
      "longitude": 2.2156384,
      "insee_code": "91756"
    },
    {
      "slug": "chambry",
      "name": "Chambry",
      "postal_codes": [
        "77910"
      ],
      "department": "77",
      "latitude": 48.9976053,
      "longitude": 2.8925012,
      "insee_code": "77261"
    },
    {
      "slug": "chamigny",
      "name": "Chamigny",
      "postal_codes": [
        "77260"
      ],
      "department": "77",
      "latitude": 48.6185526,
      "longitude": 2.6430061,
      "insee_code": "77550"
    },
    {
      "slug": "champcenest",
      "name": "Champcenest",
      "postal_codes": [
        "77560"
      ],
      "department": "77",
      "latitude": 48.6746982,
      "longitude": 3.3383491,
      "insee_code": "77192"
    },
    {
      "slug": "champdeuil",
      "name": "Champdeuil",
      "postal_codes": [
        "77390"
      ],
      "department": "77",
      "latitude": 48.620521,
      "longitude": 2.7305771,
      "insee_code": "77331"
    },
    {
      "slug": "champeaux",
      "name": "Champeaux",
      "postal_codes": [
        "77720"
      ],
      "department": "77",
      "latitude": 48.5860581,
      "longitude": 2.8066888,
      "insee_code": "77301"
    },
    {
      "slug": "champmotteux",
      "name": "Champmotteux",
      "postal_codes": [
        "91150"
      ],
      "department": "91",
      "latitude": 48.3424176,
      "longitude": 2.3201616,
      "insee_code": "91817"
    },
    {
      "slug": "changis-sur-marne",
      "name": "Changis-sur-Marne",
      "postal_codes": [
        "77660"
      ],
      "department": "77",
      "latitude": 48.9586142,
      "longitude": 3.0140823,
      "insee_code": "77539"
    },
    {
      "slug": "chanteloup-en-brie",
      "name": "Chanteloup-en-Brie",
      "postal_codes": [
        "77600"
      ],
      "department": "77",
      "latitude": 48.8555777,
      "longitude": 2.7395512,
      "insee_code": "77312"
    },
    {
      "slug": "chapet",
      "name": "Chapet",
      "postal_codes": [
        "78130"
      ],
      "department": "78",
      "latitude": 48.9661049,
      "longitude": 1.9342435,
      "insee_code": "78958"
    },
    {
      "slug": "charmentray",
      "name": "Charmentray",
      "postal_codes": [
        "77410"
      ],
      "department": "77",
      "latitude": 48.9444671,
      "longitude": 2.7762794,
      "insee_code": "77474"
    },
    {
      "slug": "charmont",
      "name": "Charmont",
      "postal_codes": [
        "95420"
      ],
      "department": "95",
      "latitude": 49.1356696,
      "longitude": 1.7903217,
      "insee_code": "95129"
    },
    {
      "slug": "charny",
      "name": "CHARNY",
      "postal_codes": [
        "77410"
      ],
      "department": "77",
      "latitude": 48.9716476,
      "longitude": 2.7608632,
      "insee_code": null
    },
    {
      "slug": "chars",
      "name": "Chars",
      "postal_codes": [
        "95750"
      ],
      "department": "95",
      "latitude": 49.1626467,
      "longitude": 1.9369487,
      "insee_code": "95115"
    },
    {
      "slug": "chartronges",
      "name": "Chartronges",
      "postal_codes": [
        "77320"
      ],
      "department": "77",
      "latitude": 48.7458363,
      "longitude": 3.2692306,
      "insee_code": "77615"
    },
    {
      "slug": "chateaubleau",
      "name": "Châteaubleau",
      "postal_codes": [
        "77370"
      ],
      "department": "77",
      "latitude": 48.593161,
      "longitude": 3.108969,
      "insee_code": "77655"
    },
    {
      "slug": "chateaufort",
      "name": "Châteaufort",
      "postal_codes": [
        "78117"
      ],
      "department": "78",
      "latitude": 48.9470739,
      "longitude": 2.0283635,
      "insee_code": "78955"
    },
    {
      "slug": "chatenay-en-france",
      "name": "Châtenay-en-France",
      "postal_codes": [
        "95190"
      ],
      "department": "95",
      "latitude": 49.0666327,
      "longitude": 2.4577215,
      "insee_code": "95196"
    },
    {
      "slug": "chatenay-sur-seine",
      "name": "Châtenay-sur-Seine",
      "postal_codes": [
        "77126"
      ],
      "department": "77",
      "latitude": 48.4195756,
      "longitude": 3.0967479,
      "insee_code": "77276"
    },
    {
      "slug": "chatenoy",
      "name": "Châtenoy",
      "postal_codes": [
        "77167"
      ],
      "department": "77",
      "latitude": 48.2336238,
      "longitude": 2.62648,
      "insee_code": "77241"
    },
    {
      "slug": "chatignonville",
      "name": "Chatignonville",
      "postal_codes": [
        "91410"
      ],
      "department": "91",
      "latitude": 48.4681763,
      "longitude": 1.9316111,
      "insee_code": "91792"
    },
    {
      "slug": "chatillon-la-borde",
      "name": "Châtillon-la-Borde",
      "postal_codes": [
        "77820"
      ],
      "department": "77",
      "latitude": 48.5410834,
      "longitude": 2.7921461,
      "insee_code": "77426"
    },
    {
      "slug": "chatres",
      "name": "Châtres",
      "postal_codes": [
        "77610"
      ],
      "department": "77",
      "latitude": 48.7112289,
      "longitude": 2.8090641,
      "insee_code": "77423"
    },
    {
      "slug": "chauffour-les-etrechy",
      "name": "Chauffour-lès-Étréchy",
      "postal_codes": [
        "91580"
      ],
      "department": "91",
      "latitude": 48.5220826,
      "longitude": 2.1843257,
      "insee_code": "91849"
    },
    {
      "slug": "chauffry",
      "name": "Chauffry",
      "postal_codes": [
        "77169"
      ],
      "department": "77",
      "latitude": 48.817729,
      "longitude": 3.1840649,
      "insee_code": "77201"
    },
    {
      "slug": "chaufour-les-bonnieres",
      "name": "Chaufour-lès-Bonnières",
      "postal_codes": [
        "78270"
      ],
      "department": "78",
      "latitude": 49.0163554,
      "longitude": 1.4836755,
      "insee_code": "78702"
    },
    {
      "slug": "chaussy",
      "name": "Chaussy",
      "postal_codes": [
        "95710"
      ],
      "department": "95",
      "latitude": 48.5332768,
      "longitude": 2.6504143,
      "insee_code": "95041"
    },
    {
      "slug": "chauvry",
      "name": "Chauvry",
      "postal_codes": [
        "95560"
      ],
      "department": "95",
      "latitude": 49.0544765,
      "longitude": 2.2669571,
      "insee_code": "95145"
    },
    {
      "slug": "chavenay",
      "name": "Chavenay",
      "postal_codes": [
        "78450"
      ],
      "department": "78",
      "latitude": 48.8533873,
      "longitude": 1.9876695,
      "insee_code": "78846"
    },
    {
      "slug": "chennevieres-les-louvres",
      "name": "Chennevières-lès-Louvres",
      "postal_codes": [
        "95380"
      ],
      "department": "95",
      "latitude": 49.0448815,
      "longitude": 2.551218,
      "insee_code": "95029"
    },
    {
      "slug": "chenoise",
      "name": "Chenoise",
      "postal_codes": [
        "77160"
      ],
      "department": "77",
      "latitude": 48.6165169,
      "longitude": 3.1950818,
      "insee_code": "77681"
    },
    {
      "slug": "chenou",
      "name": "Chenou",
      "postal_codes": [
        "77570"
      ],
      "department": "77",
      "latitude": 48.1652477,
      "longitude": 2.6434646,
      "insee_code": "77297"
    },
    {
      "slug": "cheptainville",
      "name": "Cheptainville",
      "postal_codes": [
        "91630"
      ],
      "department": "91",
      "latitude": 48.5403732,
      "longitude": 2.2467551,
      "insee_code": "91884"
    },
    {
      "slug": "cherence",
      "name": "Chérence",
      "postal_codes": [
        "95510"
      ],
      "department": "95",
      "latitude": 49.087832,
      "longitude": 1.677234,
      "insee_code": "95159"
    },
    {
      "slug": "chevannes",
      "name": "Chevannes",
      "postal_codes": [
        "91750"
      ],
      "department": "91",
      "latitude": 48.524429,
      "longitude": 2.3914095,
      "insee_code": "91794"
    },
    {
      "slug": "chevrainvilliers",
      "name": "Chevrainvilliers",
      "postal_codes": [
        "77760"
      ],
      "department": "77",
      "latitude": 48.2445017,
      "longitude": 2.615608,
      "insee_code": "77512"
    },
    {
      "slug": "chevru",
      "name": "Chevru",
      "postal_codes": [
        "77320"
      ],
      "department": "77",
      "latitude": 48.7361019,
      "longitude": 3.1945106,
      "insee_code": "77548"
    },
    {
      "slug": "chevry-en-sereine",
      "name": "Chevry-en-Sereine",
      "postal_codes": [
        "77710"
      ],
      "department": "77",
      "latitude": 48.250884,
      "longitude": 2.9353851,
      "insee_code": "77248"
    },
    {
      "slug": "choisel",
      "name": "Choisel",
      "postal_codes": [
        "78460"
      ],
      "department": "78",
      "latitude": 48.6872628,
      "longitude": 2.0185119,
      "insee_code": "78837"
    },
    {
      "slug": "choisy-en-brie",
      "name": "Choisy-en-Brie",
      "postal_codes": [
        "77320"
      ],
      "department": "77",
      "latitude": 48.7588231,
      "longitude": 3.2198794,
      "insee_code": "77432"
    },
    {
      "slug": "citry",
      "name": "Citry",
      "postal_codes": [
        "77730"
      ],
      "department": "77",
      "latitude": 48.9691232,
      "longitude": 3.238121,
      "insee_code": "77642"
    },
    {
      "slug": "civry-la-foret",
      "name": "Civry-la-Forêt",
      "postal_codes": [
        "78910"
      ],
      "department": "78",
      "latitude": 48.8668237,
      "longitude": 1.6169513,
      "insee_code": "78752"
    },
    {
      "slug": "clairefontaine-en-yvelines",
      "name": "Clairefontaine-en-Yvelines",
      "postal_codes": [
        "78120"
      ],
      "department": "78",
      "latitude": 48.8063045,
      "longitude": 1.7274925,
      "insee_code": "78940"
    },
    {
      "slug": "clery-en-vexin",
      "name": "Cléry-en-Vexin",
      "postal_codes": [
        "95420"
      ],
      "department": "95",
      "latitude": 49.1300258,
      "longitude": 1.8417137,
      "insee_code": "95061"
    },
    {
      "slug": "clos-fontaine",
      "name": "Clos-Fontaine",
      "postal_codes": [
        "77370"
      ],
      "department": "77",
      "latitude": 48.8486886,
      "longitude": 2.5954263,
      "insee_code": "77420"
    },
    {
      "slug": "cocherel",
      "name": "Cocherel",
      "postal_codes": [
        "77440"
      ],
      "department": "77",
      "latitude": 49.0212484,
      "longitude": 3.1008769,
      "insee_code": "77256"
    },
    {
      "slug": "commeny",
      "name": "Commeny",
      "postal_codes": [
        "95450"
      ],
      "department": "95",
      "latitude": 49.1271097,
      "longitude": 1.8904928,
      "insee_code": "95062"
    },
    {
      "slug": "compans",
      "name": "Compans",
      "postal_codes": [
        "77290"
      ],
      "department": "77",
      "latitude": 48.9936994,
      "longitude": 2.6623623,
      "insee_code": "77411"
    },
    {
      "slug": "conches-sur-gondoire",
      "name": "Conches-sur-Gondoire",
      "postal_codes": [
        "77600"
      ],
      "department": "77",
      "latitude": 48.8543635,
      "longitude": 2.7219163,
      "insee_code": "77194"
    },
    {
      "slug": "conde-sainte-libiaire",
      "name": "Condé-Sainte-Libiaire",
      "postal_codes": [
        "77450"
      ],
      "department": "77",
      "latitude": 48.6279945,
      "longitude": 2.555427,
      "insee_code": "77564"
    },
    {
      "slug": "conde-sur-vesgre",
      "name": "Condé-sur-Vesgre",
      "postal_codes": [
        "78113"
      ],
      "department": "78",
      "latitude": 48.7417887,
      "longitude": 1.6621733,
      "insee_code": "78706"
    },
    {
      "slug": "condecourt",
      "name": "Condécourt",
      "postal_codes": [
        "95450"
      ],
      "department": "95",
      "latitude": 49.041871,
      "longitude": 1.9400988,
      "insee_code": "95070"
    },
    {
      "slug": "congerville-thionville",
      "name": "Congerville-Thionville",
      "postal_codes": [
        "91740"
      ],
      "department": "91",
      "latitude": 48.4781878,
      "longitude": 2.4688115,
      "insee_code": "91840"
    },
    {
      "slug": "congis-sur-therouanne",
      "name": "Congis-sur-Thérouanne",
      "postal_codes": [
        "77440"
      ],
      "department": "77",
      "latitude": 49.007004,
      "longitude": 2.974631,
      "insee_code": "77279"
    },
    {
      "slug": "corbreuse",
      "name": "Corbreuse",
      "postal_codes": [
        "91410"
      ],
      "department": "91",
      "latitude": 48.6885657,
      "longitude": 2.5137543,
      "insee_code": "91860"
    },
    {
      "slug": "cormeilles-en-vexin",
      "name": "Cormeilles-en-Vexin",
      "postal_codes": [
        "95830"
      ],
      "department": "95",
      "latitude": 49.1157322,
      "longitude": 2.020926,
      "insee_code": "95158"
    },
    {
      "slug": "coubert",
      "name": "Coubert",
      "postal_codes": [
        "77170"
      ],
      "department": "77",
      "latitude": 48.6663984,
      "longitude": 2.6979597,
      "insee_code": "77675"
    },
    {
      "slug": "couilly-pont-aux-dames",
      "name": "Couilly-Pont-aux-Dames",
      "postal_codes": [
        "77860"
      ],
      "department": "77",
      "latitude": 48.8715357,
      "longitude": 2.8713602,
      "insee_code": "77328"
    },
    {
      "slug": "coulombs-en-valois",
      "name": "Coulombs-en-Valois",
      "postal_codes": [
        "77840"
      ],
      "department": "77",
      "latitude": 48.7709012,
      "longitude": 2.6294703,
      "insee_code": "77601"
    },
    {
      "slug": "coulommes",
      "name": "Coulommes",
      "postal_codes": [
        "77580"
      ],
      "department": "77",
      "latitude": 48.8913236,
      "longitude": 2.932068,
      "insee_code": "77272"
    },
    {
      "slug": "courances",
      "name": "Courances",
      "postal_codes": [
        "91490"
      ],
      "department": "91",
      "latitude": 48.4401438,
      "longitude": 2.47554,
      "insee_code": "91896"
    },
    {
      "slug": "courcelles-en-bassee",
      "name": "Courcelles-en-Bassée",
      "postal_codes": [
        "77126"
      ],
      "department": "77",
      "latitude": 48.4101121,
      "longitude": 3.0554616,
      "insee_code": "77541"
    },
    {
      "slug": "courcelles-sur-viosne",
      "name": "Courcelles-sur-Viosne",
      "postal_codes": [
        "95650"
      ],
      "department": "95",
      "latitude": 49.077153,
      "longitude": 2.0033449,
      "insee_code": "95048"
    },
    {
      "slug": "courchamp",
      "name": "Courchamp",
      "postal_codes": [
        "77560"
      ],
      "department": "77",
      "latitude": 48.635766,
      "longitude": 3.3304654,
      "insee_code": "77316"
    },
    {
      "slug": "courdimanche-sur-essonne",
      "name": "Courdimanche-sur-Essonne",
      "postal_codes": [
        "91720"
      ],
      "department": "91",
      "latitude": 48.4188533,
      "longitude": 2.3768291,
      "insee_code": "91895"
    },
    {
      "slug": "courgent",
      "name": "Courgent",
      "postal_codes": [
        "78790"
      ],
      "department": "78",
      "latitude": 48.894186,
      "longitude": 1.6600858,
      "insee_code": "78779"
    },
    {
      "slug": "courpalay",
      "name": "Courpalay",
      "postal_codes": [
        "77540"
      ],
      "department": "77",
      "latitude": 48.6496903,
      "longitude": 2.9612809,
      "insee_code": "77469"
    },
    {
      "slug": "courquetaine",
      "name": "Courquetaine",
      "postal_codes": [
        "77390"
      ],
      "department": "77",
      "latitude": 48.6773871,
      "longitude": 2.7439351,
      "insee_code": "77397"
    },
    {
      "slug": "courson-monteloup",
      "name": "Courson-Monteloup",
      "postal_codes": [
        "91680"
      ],
      "department": "91",
      "latitude": 48.5930357,
      "longitude": 2.144884,
      "insee_code": "91839"
    },
    {
      "slug": "courtacon",
      "name": "Courtacon",
      "postal_codes": [
        "77560"
      ],
      "department": "77",
      "latitude": 48.6973177,
      "longitude": 3.2921119,
      "insee_code": "77292"
    },
    {
      "slug": "courtomer",
      "name": "Courtomer",
      "postal_codes": [
        "77390"
      ],
      "department": "77",
      "latitude": 48.6533533,
      "longitude": 2.9033015,
      "insee_code": "77391"
    },
    {
      "slug": "coutencon",
      "name": "Coutençon",
      "postal_codes": [
        "77154"
      ],
      "department": "77",
      "latitude": 48.4699703,
      "longitude": 2.9985145,
      "insee_code": "77503"
    },
    {
      "slug": "coutevroult",
      "name": "Coutevroult",
      "postal_codes": [
        "77580"
      ],
      "department": "77",
      "latitude": 48.5653247,
      "longitude": 2.6208805,
      "insee_code": "77240"
    },
    {
      "slug": "cravent",
      "name": "Cravent",
      "postal_codes": [
        "78270"
      ],
      "department": "78",
      "latitude": 48.990794,
      "longitude": 1.4878139,
      "insee_code": "78905"
    },
    {
      "slug": "crespieres",
      "name": "Crespières",
      "postal_codes": [
        "78121"
      ],
      "department": "78",
      "latitude": 48.8821534,
      "longitude": 1.9202924,
      "insee_code": "78874"
    },
    {
      "slug": "crevec-ur-en-brie",
      "name": "Crèvecœur-en-Brie",
      "postal_codes": [
        "77610"
      ],
      "department": "77",
      "latitude": 48.7538584,
      "longitude": 2.907188,
      "insee_code": "77501"
    },
    {
      "slug": "crevecoeur-en-brie",
      "name": "Crèvecœur-en-Brie",
      "postal_codes": [
        "77610"
      ],
      "department": "77",
      "latitude": 48.7538584,
      "longitude": 2.907188,
      "insee_code": null
    },
    {
      "slug": "crisenoy",
      "name": "Crisenoy",
      "postal_codes": [
        "77390"
      ],
      "department": "77",
      "latitude": 48.581523,
      "longitude": 2.7326054,
      "insee_code": "77298"
    },
    {
      "slug": "croissy-beaubourg",
      "name": "Croissy-Beaubourg",
      "postal_codes": [
        "77183"
      ],
      "department": "77",
      "latitude": 48.8271798,
      "longitude": 2.6492023,
      "insee_code": "77685"
    },
    {
      "slug": "crouy-sur-ourcq",
      "name": "Crouy-sur-Ourcq",
      "postal_codes": [
        "77840"
      ],
      "department": "77",
      "latitude": 49.0927027,
      "longitude": 3.0618833,
      "insee_code": "77357"
    },
    {
      "slug": "cucharmoy",
      "name": "Cucharmoy",
      "postal_codes": [
        "77160"
      ],
      "department": "77",
      "latitude": 48.5603334,
      "longitude": 3.2178097,
      "insee_code": "77356"
    },
    {
      "slug": "cuisy",
      "name": "Cuisy",
      "postal_codes": [
        "77165"
      ],
      "department": "77",
      "latitude": 49.0205084,
      "longitude": 2.7722152,
      "insee_code": "77546"
    },
    {
      "slug": "d-huison-longueville",
      "name": "D\\'Huison-Longueville",
      "postal_codes": [
        "91590"
      ],
      "department": "91",
      "latitude": 48.4578546,
      "longitude": 2.3220168,
      "insee_code": "91791"
    },
    {
      "slug": "d'huison-longueville",
      "name": "D'HUISON-LONGUEVILLE",
      "postal_codes": [
        "91590"
      ],
      "department": "91",
      "latitude": 48.4598531,
      "longitude": 2.3220238,
      "insee_code": null
    },
    {
      "slug": "dagny",
      "name": "Dagny",
      "postal_codes": [
        "77320"
      ],
      "department": "77",
      "latitude": 48.7163928,
      "longitude": 3.1706926,
      "insee_code": "77315"
    },
    {
      "slug": "dammartin-en-serve",
      "name": "Dammartin-en-Serve",
      "postal_codes": [
        "78111"
      ],
      "department": "78",
      "latitude": 48.9039102,
      "longitude": 1.6195257,
      "insee_code": "78893"
    },
    {
      "slug": "dammartin-sur-tigeaux",
      "name": "Dammartin-sur-Tigeaux",
      "postal_codes": [
        "77163"
      ],
      "department": "77",
      "latitude": 48.8167695,
      "longitude": 2.9223782,
      "insee_code": "77195"
    },
    {
      "slug": "dampierre-en-yvelines",
      "name": "Dampierre-en-Yvelines",
      "postal_codes": [
        "78720"
      ],
      "department": "78",
      "latitude": 48.7050057,
      "longitude": 1.9856176,
      "insee_code": "78938"
    },
    {
      "slug": "dannemarie",
      "name": "Dannemarie",
      "postal_codes": [
        "78550"
      ],
      "department": "78",
      "latitude": 48.7615134,
      "longitude": 1.6084767,
      "insee_code": "78733"
    },
    {
      "slug": "dannemois",
      "name": "Dannemois",
      "postal_codes": [
        "91490"
      ],
      "department": "91",
      "latitude": 48.4538873,
      "longitude": 2.4778402,
      "insee_code": "91793"
    },
    {
      "slug": "darvault",
      "name": "Darvault",
      "postal_codes": [
        "77140"
      ],
      "department": "77",
      "latitude": 48.2631248,
      "longitude": 2.7236774,
      "insee_code": "77207"
    },
    {
      "slug": "davron",
      "name": "Davron",
      "postal_codes": [
        "78810"
      ],
      "department": "78",
      "latitude": 48.8651611,
      "longitude": 1.9466425,
      "insee_code": "78806"
    },
    {
      "slug": "dhuisy",
      "name": "Dhuisy",
      "postal_codes": [
        "77440"
      ],
      "department": "77",
      "latitude": 49.0396383,
      "longitude": 3.1594968,
      "insee_code": "77259"
    },
    {
      "slug": "diant",
      "name": "Diant",
      "postal_codes": [
        "77940"
      ],
      "department": "77",
      "latitude": 48.2822091,
      "longitude": 2.9925718,
      "insee_code": "77462"
    },
    {
      "slug": "dormelles",
      "name": "Dormelles",
      "postal_codes": [
        "77130"
      ],
      "department": "77",
      "latitude": 48.316383,
      "longitude": 2.901095,
      "insee_code": "77633"
    },
    {
      "slug": "doue",
      "name": "Doue",
      "postal_codes": [
        "77510"
      ],
      "department": "77",
      "latitude": 48.8659005,
      "longitude": 3.1619596,
      "insee_code": "77245"
    },
    {
      "slug": "douy-la-ramee",
      "name": "Douy-la-Ramée",
      "postal_codes": [
        "77139"
      ],
      "department": "77",
      "latitude": 49.0671475,
      "longitude": 2.8820102,
      "insee_code": "77632"
    },
    {
      "slug": "drocourt",
      "name": "Drocourt",
      "postal_codes": [
        "78440"
      ],
      "department": "78",
      "latitude": 49.0560497,
      "longitude": 1.7676487,
      "insee_code": "78882"
    },
    {
      "slug": "echarcon",
      "name": "Écharcon",
      "postal_codes": [
        "91540"
      ],
      "department": "91",
      "latitude": 48.5701164,
      "longitude": 2.4043934,
      "insee_code": "91739"
    },
    {
      "slug": "echouboulains",
      "name": "Échouboulains",
      "postal_codes": [
        "77830"
      ],
      "department": "77",
      "latitude": 48.463518,
      "longitude": 2.9451846,
      "insee_code": "77593"
    },
    {
      "slug": "egligny",
      "name": "Égligny",
      "postal_codes": [
        "77126"
      ],
      "department": "77",
      "latitude": 48.4271755,
      "longitude": 3.1211982,
      "insee_code": "77547"
    },
    {
      "slug": "egreville",
      "name": "Égreville",
      "postal_codes": [
        "77620"
      ],
      "department": "77",
      "latitude": 48.1766837,
      "longitude": 2.8777226,
      "insee_code": "77349"
    },
    {
      "slug": "emance",
      "name": "Émancé",
      "postal_codes": [
        "78125"
      ],
      "department": "78",
      "latitude": 48.5891875,
      "longitude": 1.7301408,
      "insee_code": "78757"
    },
    {
      "slug": "ennery",
      "name": "Ennery",
      "postal_codes": [
        "95300"
      ],
      "department": "95",
      "latitude": 49.0763173,
      "longitude": 2.1062625,
      "insee_code": "95137"
    },
    {
      "slug": "epiais-les-louvres",
      "name": "Épiais-lès-Louvres",
      "postal_codes": [
        "95380"
      ],
      "department": "95",
      "latitude": 49.0319324,
      "longitude": 2.5575157,
      "insee_code": "95056"
    },
    {
      "slug": "epiais-rhus",
      "name": "Épiais-Rhus",
      "postal_codes": [
        "95810"
      ],
      "department": "95",
      "latitude": 49.1232379,
      "longitude": 2.0638522,
      "insee_code": "95063"
    },
    {
      "slug": "epinay-champlatreux",
      "name": "Épinay-Champlâtreux",
      "postal_codes": [
        "95270"
      ],
      "department": "95",
      "latitude": 49.0854213,
      "longitude": 2.4118497,
      "insee_code": "95192"
    },
    {
      "slug": "episy",
      "name": "Épisy",
      "postal_codes": [
        "77250"
      ],
      "department": "77",
      "latitude": 48.340663,
      "longitude": 2.7961108,
      "insee_code": "77471"
    },
    {
      "slug": "esmans",
      "name": "Esmans",
      "postal_codes": [
        "77940"
      ],
      "department": "77",
      "latitude": 48.3481392,
      "longitude": 2.9761408,
      "insee_code": "77476"
    },
    {
      "slug": "estouches",
      "name": "Estouches",
      "postal_codes": [
        "91660"
      ],
      "department": "91",
      "latitude": 48.302315,
      "longitude": 2.1339815,
      "insee_code": "91716"
    },
    {
      "slug": "etrepilly",
      "name": "Étrépilly",
      "postal_codes": [
        "77139"
      ],
      "department": "77",
      "latitude": 49.0362525,
      "longitude": 2.9288883,
      "insee_code": "77644"
    },
    {
      "slug": "evecquemont",
      "name": "Évecquemont",
      "postal_codes": [
        "78740"
      ],
      "department": "78",
      "latitude": 49.0145808,
      "longitude": 1.9466257,
      "insee_code": "78741"
    },
    {
      "slug": "everly",
      "name": "Everly",
      "postal_codes": [
        "77157"
      ],
      "department": "77",
      "latitude": 48.466722,
      "longitude": 3.2482544,
      "insee_code": "77567"
    },
    {
      "slug": "fa-les-nemours",
      "name": "Faÿ-lès-Nemours",
      "postal_codes": [
        "77167"
      ],
      "department": "77",
      "latitude": 48.230656,
      "longitude": 2.674363,
      "insee_code": "77226"
    },
    {
      "slug": "favieres",
      "name": "FAVIERES",
      "postal_codes": [
        "77220"
      ],
      "department": "77",
      "latitude": 48.7643082,
      "longitude": 2.7743479,
      "insee_code": null
    },
    {
      "slug": "favrieux",
      "name": "Favrieux",
      "postal_codes": [
        "78200"
      ],
      "department": "78",
      "latitude": 48.9438512,
      "longitude": 1.6432873,
      "insee_code": "78872"
    },
    {
      "slug": "fay-les-nemours",
      "name": "Faÿ-lès-Nemours",
      "postal_codes": [
        "77167"
      ],
      "department": "77",
      "latitude": 48.230656,
      "longitude": 2.674363,
      "insee_code": null
    },
    {
      "slug": "fericy",
      "name": "Féricy",
      "postal_codes": [
        "77133"
      ],
      "department": "77",
      "latitude": 48.4596035,
      "longitude": 2.8012128,
      "insee_code": "77694"
    },
    {
      "slug": "ferolles-attilly",
      "name": "Férolles-Attilly",
      "postal_codes": [
        "77150"
      ],
      "department": "77",
      "latitude": 48.7320699,
      "longitude": 2.6286378,
      "insee_code": "77489"
    },
    {
      "slug": "ferrieres-en-brie",
      "name": "Ferrières-en-Brie",
      "postal_codes": [
        "77164"
      ],
      "department": "77",
      "latitude": 48.820913,
      "longitude": 2.7055993,
      "insee_code": "77556"
    },
    {
      "slug": "flacourt",
      "name": "Flacourt",
      "postal_codes": [
        "78200"
      ],
      "department": "78",
      "latitude": 48.9280712,
      "longitude": 1.6467667,
      "insee_code": "78774"
    },
    {
      "slug": "flagy",
      "name": "Flagy",
      "postal_codes": [
        "77940"
      ],
      "department": "77",
      "latitude": 48.3130745,
      "longitude": 2.9214184,
      "insee_code": "77451"
    },
    {
      "slug": "fleury-en-biere",
      "name": "Fleury-en-Bière",
      "postal_codes": [
        "77930"
      ],
      "department": "77",
      "latitude": 48.4516102,
      "longitude": 2.5484261,
      "insee_code": "77483"
    },
    {
      "slug": "flexanville",
      "name": "Flexanville",
      "postal_codes": [
        "78910"
      ],
      "department": "78",
      "latitude": 48.8559435,
      "longitude": 1.7392213,
      "insee_code": "78744"
    },
    {
      "slug": "flins-neuve-eglise",
      "name": "Flins-Neuve-Église",
      "postal_codes": [
        "78790"
      ],
      "department": "78",
      "latitude": 48.8906464,
      "longitude": 1.578499,
      "insee_code": "78835"
    },
    {
      "slug": "follainville-dennemont",
      "name": "Follainville-Dennemont",
      "postal_codes": [
        "78520"
      ],
      "department": "78",
      "latitude": 49.0213601,
      "longitude": 1.7151203,
      "insee_code": "78796"
    },
    {
      "slug": "fontaine-fourches",
      "name": "Fontaine-Fourches",
      "postal_codes": [
        "77480"
      ],
      "department": "77",
      "latitude": 48.4139155,
      "longitude": 3.3915957,
      "insee_code": "77458"
    },
    {
      "slug": "fontaine-la-riviere",
      "name": "Fontaine-la-Rivière",
      "postal_codes": [
        "91690"
      ],
      "department": "91",
      "latitude": 48.437,
      "longitude": 2.2773759,
      "insee_code": "91880"
    },
    {
      "slug": "fontaine-le-port",
      "name": "Fontaine-le-Port",
      "postal_codes": [
        "77590"
      ],
      "department": "77",
      "latitude": 48.4871225,
      "longitude": 2.7513882,
      "insee_code": "77284"
    },
    {
      "slug": "fontains",
      "name": "Fontains",
      "postal_codes": [
        "77370"
      ],
      "department": "77",
      "latitude": 48.5272853,
      "longitude": 3.0021157,
      "insee_code": "77584"
    },
    {
      "slug": "fontenailles",
      "name": "FONTENAILLES",
      "postal_codes": [
        "77370"
      ],
      "department": "77",
      "latitude": 48.555306,
      "longitude": 2.953889,
      "insee_code": null
    },
    {
      "slug": "fontenay-en-parisis",
      "name": "Fontenay-en-Parisis",
      "postal_codes": [
        "95190"
      ],
      "department": "95",
      "latitude": 49.0535501,
      "longitude": 2.45143,
      "insee_code": "95031"
    },
    {
      "slug": "fontenay-le-vicomte",
      "name": "Fontenay-le-Vicomte",
      "postal_codes": [
        "91540"
      ],
      "department": "91",
      "latitude": 48.547659,
      "longitude": 2.3986984,
      "insee_code": "91803"
    },
    {
      "slug": "fontenay-les-briis",
      "name": "Fontenay-lès-Briis",
      "postal_codes": [
        "91640"
      ],
      "department": "91",
      "latitude": 48.61939,
      "longitude": 2.15475,
      "insee_code": "91829"
    },
    {
      "slug": "fontenay-mauvoisin",
      "name": "Fontenay-Mauvoisin",
      "postal_codes": [
        "78200"
      ],
      "department": "78",
      "latitude": 48.9424404,
      "longitude": 1.7176365,
      "insee_code": "78930"
    },
    {
      "slug": "fontenay-saint-pere",
      "name": "Fontenay-Saint-Père",
      "postal_codes": [
        "78440"
      ],
      "department": "78",
      "latitude": 49.0244951,
      "longitude": 1.7553639,
      "insee_code": "78794"
    },
    {
      "slug": "forfry",
      "name": "Forfry",
      "postal_codes": [
        "77165"
      ],
      "department": "77",
      "latitude": 49.0431963,
      "longitude": 2.8128099,
      "insee_code": "77285"
    },
    {
      "slug": "forges",
      "name": "FORGES",
      "postal_codes": [
        "77130"
      ],
      "department": "77",
      "latitude": 48.4193206,
      "longitude": 2.9603646,
      "insee_code": null
    },
    {
      "slug": "fouju",
      "name": "Fouju",
      "postal_codes": [
        "77390"
      ],
      "department": "77",
      "latitude": 48.6317152,
      "longitude": 2.7943669,
      "insee_code": "77401"
    },
    {
      "slug": "fremainville",
      "name": "Frémainville",
      "postal_codes": [
        "95450"
      ],
      "department": "95",
      "latitude": 49.0650534,
      "longitude": 1.8677977,
      "insee_code": "95166"
    },
    {
      "slug": "fremecourt",
      "name": "Frémécourt",
      "postal_codes": [
        "95830"
      ],
      "department": "95",
      "latitude": 49.119121,
      "longitude": 2.0017953,
      "insee_code": "95165"
    },
    {
      "slug": "fresnes-sur-marne",
      "name": "Fresnes-sur-Marne",
      "postal_codes": [
        "77410"
      ],
      "department": "77",
      "latitude": 48.9398504,
      "longitude": 2.7442616,
      "insee_code": "77436"
    },
    {
      "slug": "fretoy",
      "name": "Frétoy",
      "postal_codes": [
        "77320"
      ],
      "department": "77",
      "latitude": 48.7088118,
      "longitude": 3.2033517,
      "insee_code": "77533"
    },
    {
      "slug": "fromont",
      "name": "Fromont",
      "postal_codes": [
        "77760"
      ],
      "department": "77",
      "latitude": 48.2552727,
      "longitude": 2.5041894,
      "insee_code": "77549"
    },
    {
      "slug": "frouville",
      "name": "Frouville",
      "postal_codes": [
        "95690"
      ],
      "department": "95",
      "latitude": 49.1480668,
      "longitude": 2.1503044,
      "insee_code": "95141"
    },
    {
      "slug": "fublaines",
      "name": "Fublaines",
      "postal_codes": [
        "77470"
      ],
      "department": "77",
      "latitude": 48.9547981,
      "longitude": 2.9445812,
      "insee_code": "77679"
    },
    {
      "slug": "gadancourt",
      "name": "Gadancourt",
      "postal_codes": [
        "95450"
      ],
      "department": "95",
      "latitude": 49.0963902,
      "longitude": 1.8464535,
      "insee_code": "95179"
    },
    {
      "slug": "gaillon-sur-montcient",
      "name": "Gaillon-sur-Montcient",
      "postal_codes": [
        "78250"
      ],
      "department": "78",
      "latitude": 49.0246492,
      "longitude": 1.89222,
      "insee_code": "78923"
    },
    {
      "slug": "galluis",
      "name": "Galluis",
      "postal_codes": [
        "78490"
      ],
      "department": "78",
      "latitude": 48.7961069,
      "longitude": 1.7942019,
      "insee_code": "78731"
    },
    {
      "slug": "gambaiseuil",
      "name": "Gambaiseuil",
      "postal_codes": [
        "78490"
      ],
      "department": "78",
      "latitude": 48.7561179,
      "longitude": 1.73186,
      "insee_code": "78858"
    },
    {
      "slug": "garentreville",
      "name": "Garentreville",
      "postal_codes": [
        "77890"
      ],
      "department": "77",
      "latitude": 48.2361532,
      "longitude": 2.5484861,
      "insee_code": "77384"
    },
    {
      "slug": "gastins",
      "name": "Gastins",
      "postal_codes": [
        "77370"
      ],
      "department": "77",
      "latitude": 48.6279001,
      "longitude": 3.0199111,
      "insee_code": "77345"
    },
    {
      "slug": "gazeran",
      "name": "Gazeran",
      "postal_codes": [
        "78125"
      ],
      "department": "78",
      "latitude": 48.6348196,
      "longitude": 1.771981,
      "insee_code": "78743"
    },
    {
      "slug": "genainville",
      "name": "Genainville",
      "postal_codes": [
        "95420"
      ],
      "department": "95",
      "latitude": 49.1252057,
      "longitude": 1.7518981,
      "insee_code": "95198"
    },
    {
      "slug": "genicourt",
      "name": "Génicourt",
      "postal_codes": [
        "95650"
      ],
      "department": "95",
      "latitude": 49.0874343,
      "longitude": 2.0658319,
      "insee_code": "95068"
    },
    {
      "slug": "germigny-l-eveque",
      "name": "Germigny-l\\'Évêque",
      "postal_codes": [
        "77910"
      ],
      "department": "77",
      "latitude": 48.9934254,
      "longitude": 2.9455892,
      "insee_code": "77193"
    },
    {
      "slug": "germigny-l'eveque",
      "name": "GERMIGNY-L'EVEQUE",
      "postal_codes": [
        "77910"
      ],
      "department": "77",
      "latitude": 48.9923186,
      "longitude": 2.9457335,
      "insee_code": null
    },
    {
      "slug": "germigny-sous-coulombs",
      "name": "Germigny-sous-Coulombs",
      "postal_codes": [
        "77840"
      ],
      "department": "77",
      "latitude": 49.0646526,
      "longitude": 3.1574146,
      "insee_code": "77554"
    },
    {
      "slug": "gesvres-le-chapitre",
      "name": "Gesvres-le-Chapitre",
      "postal_codes": [
        "77165"
      ],
      "department": "77",
      "latitude": 49.0438243,
      "longitude": 2.8507139,
      "insee_code": "77609"
    },
    {
      "slug": "giremoutiers",
      "name": "Giremoutiers",
      "postal_codes": [
        "77120"
      ],
      "department": "77",
      "latitude": 48.8429434,
      "longitude": 3.0290223,
      "insee_code": "77523"
    },
    {
      "slug": "gironville",
      "name": "Gironville",
      "postal_codes": [
        "77890"
      ],
      "department": "77",
      "latitude": 48.1860481,
      "longitude": 2.5285975,
      "insee_code": "77422"
    },
    {
      "slug": "gironville-sur-essonne",
      "name": "Gironville-sur-Essonne",
      "postal_codes": [
        "91720"
      ],
      "department": "91",
      "latitude": 48.550913,
      "longitude": 2.3620042,
      "insee_code": "91710"
    },
    {
      "slug": "gometz-la-ville",
      "name": "Gometz-la-Ville",
      "postal_codes": [
        "91400"
      ],
      "department": "91",
      "latitude": 48.6718036,
      "longitude": 2.1250543,
      "insee_code": "91788"
    },
    {
      "slug": "gommecourt",
      "name": "Gommecourt",
      "postal_codes": [
        "78270"
      ],
      "department": "78",
      "latitude": 49.0766367,
      "longitude": 1.5923118,
      "insee_code": "78866"
    },
    {
      "slug": "gouaix",
      "name": "Gouaix",
      "postal_codes": [
        "77114"
      ],
      "department": "77",
      "latitude": 48.4825868,
      "longitude": 3.2935359,
      "insee_code": "77219"
    },
    {
      "slug": "goupillieres",
      "name": "Goupillières",
      "postal_codes": [
        "78770"
      ],
      "department": "78",
      "latitude": 48.8785774,
      "longitude": 1.7611709,
      "insee_code": "78839"
    },
    {
      "slug": "goussonville",
      "name": "Goussonville",
      "postal_codes": [
        "78930"
      ],
      "department": "78",
      "latitude": 48.9195516,
      "longitude": 1.7669261,
      "insee_code": "78728"
    },
    {
      "slug": "gouvernes",
      "name": "Gouvernes",
      "postal_codes": [
        "77400"
      ],
      "department": "77",
      "latitude": 48.8598385,
      "longitude": 2.6927897,
      "insee_code": "77294"
    },
    {
      "slug": "gouzangrez",
      "name": "Gouzangrez",
      "postal_codes": [
        "95450"
      ],
      "department": "95",
      "latitude": 49.1125726,
      "longitude": 1.9081867,
      "insee_code": "95096"
    },
    {
      "slug": "grandchamp",
      "name": "GRANDCHAMP",
      "postal_codes": [
        "78113"
      ],
      "department": "78",
      "latitude": 48.7103197,
      "longitude": 1.5992171,
      "insee_code": null
    },
    {
      "slug": "grandpuits-bailly-carrois",
      "name": "Grandpuits-Bailly-Carrois",
      "postal_codes": [
        "77720"
      ],
      "department": "77",
      "latitude": 48.584509,
      "longitude": 2.9670184,
      "insee_code": "77638"
    },
    {
      "slug": "gravon",
      "name": "Gravon",
      "postal_codes": [
        "77118"
      ],
      "department": "77",
      "latitude": 48.3989764,
      "longitude": 3.1199592,
      "insee_code": "77268"
    },
    {
      "slug": "gressey",
      "name": "Gressey",
      "postal_codes": [
        "78550"
      ],
      "department": "78",
      "latitude": 48.8313842,
      "longitude": 1.6092498,
      "insee_code": "78843"
    },
    {
      "slug": "gressy",
      "name": "Gressy",
      "postal_codes": [
        "77410"
      ],
      "department": "77",
      "latitude": 48.964069,
      "longitude": 2.6747057,
      "insee_code": "77582"
    },
    {
      "slug": "grez-sur-loing",
      "name": "Grez-sur-Loing",
      "postal_codes": [
        "77880"
      ],
      "department": "77",
      "latitude": 48.3182651,
      "longitude": 2.693197,
      "insee_code": "77244"
    },
    {
      "slug": "grisy-les-platres",
      "name": "Grisy-les-Plâtres",
      "postal_codes": [
        "95810"
      ],
      "department": "95",
      "latitude": 49.1306536,
      "longitude": 2.050646,
      "insee_code": "95089"
    },
    {
      "slug": "grisy-sur-seine",
      "name": "Grisy-sur-Seine",
      "postal_codes": [
        "77480"
      ],
      "department": "77",
      "latitude": 48.448471,
      "longitude": 3.3515515,
      "insee_code": "77583"
    },
    {
      "slug": "grosrouvre",
      "name": "Grosrouvre",
      "postal_codes": [
        "78490"
      ],
      "department": "78",
      "latitude": 48.7829151,
      "longitude": 1.7611819,
      "insee_code": "78943"
    },
    {
      "slug": "guerard",
      "name": "Guérard",
      "postal_codes": [
        "77580"
      ],
      "department": "77",
      "latitude": 48.5057087,
      "longitude": 2.6128279,
      "insee_code": "77190"
    },
    {
      "slug": "guercheville",
      "name": "Guercheville",
      "postal_codes": [
        "77760"
      ],
      "department": "77",
      "latitude": 48.2614184,
      "longitude": 2.5600252,
      "insee_code": "77457"
    },
    {
      "slug": "guermantes",
      "name": "Guermantes",
      "postal_codes": [
        "77600"
      ],
      "department": "77",
      "latitude": 48.4230917,
      "longitude": 2.6644703,
      "insee_code": "77300"
    },
    {
      "slug": "guernes",
      "name": "Guernes",
      "postal_codes": [
        "78520"
      ],
      "department": "78",
      "latitude": 49.0109941,
      "longitude": 1.6345539,
      "insee_code": "78864"
    },
    {
      "slug": "guerville",
      "name": "Guerville",
      "postal_codes": [
        "78930"
      ],
      "department": "78",
      "latitude": 48.9435844,
      "longitude": 1.7330307,
      "insee_code": "78753"
    },
    {
      "slug": "guibeville",
      "name": "Guibeville",
      "postal_codes": [
        "91630"
      ],
      "department": "91",
      "latitude": 48.5651414,
      "longitude": 2.2906769,
      "insee_code": "91815"
    },
    {
      "slug": "guigneville-sur-essonne",
      "name": "Guigneville-sur-Essonne",
      "postal_codes": [
        "91590"
      ],
      "department": "91",
      "latitude": 48.478023,
      "longitude": 2.3542498,
      "insee_code": "91732"
    },
    {
      "slug": "guillerval",
      "name": "Guillerval",
      "postal_codes": [
        "91690"
      ],
      "department": "91",
      "latitude": 48.365014,
      "longitude": 2.1020785,
      "insee_code": "91723"
    },
    {
      "slug": "guiry-en-vexin",
      "name": "Guiry-en-Vexin",
      "postal_codes": [
        "95450"
      ],
      "department": "95",
      "latitude": 49.1099698,
      "longitude": 1.8504387,
      "insee_code": "95188"
    },
    {
      "slug": "guitrancourt",
      "name": "Guitrancourt",
      "postal_codes": [
        "78440"
      ],
      "department": "78",
      "latitude": 49.0079198,
      "longitude": 1.7781361,
      "insee_code": "78881"
    },
    {
      "slug": "gurcy-le-chatel",
      "name": "Gurcy-le-Châtel",
      "postal_codes": [
        "77520"
      ],
      "department": "77",
      "latitude": 48.4714911,
      "longitude": 3.0824036,
      "insee_code": "77608"
    },
    {
      "slug": "haravilliers",
      "name": "Haravilliers",
      "postal_codes": [
        "95640"
      ],
      "department": "95",
      "latitude": 49.1741657,
      "longitude": 2.0537662,
      "insee_code": "95045"
    },
    {
      "slug": "hardricourt",
      "name": "Hardricourt",
      "postal_codes": [
        "78250"
      ],
      "department": "78",
      "latitude": 49.007388,
      "longitude": 1.8969766,
      "insee_code": "78921"
    },
    {
      "slug": "hargeville",
      "name": "Hargeville",
      "postal_codes": [
        "78790"
      ],
      "department": "78",
      "latitude": 48.8900261,
      "longitude": 1.7415802,
      "insee_code": "78747"
    },
    {
      "slug": "haute-isle",
      "name": "Haute-Isle",
      "postal_codes": [
        "95780"
      ],
      "department": "95",
      "latitude": 49.0795831,
      "longitude": 1.671244,
      "insee_code": "95082"
    },
    {
      "slug": "hautefeuille",
      "name": "Hautefeuille",
      "postal_codes": [
        "77515"
      ],
      "department": "77",
      "latitude": 48.7660846,
      "longitude": 2.9669016,
      "insee_code": "77339"
    },
    {
      "slug": "hedouville",
      "name": "Hédouville",
      "postal_codes": [
        "95690"
      ],
      "department": "95",
      "latitude": 48.950131,
      "longitude": 2.2445364,
      "insee_code": "95100"
    },
    {
      "slug": "herbeville",
      "name": "Herbeville",
      "postal_codes": [
        "78580"
      ],
      "department": "78",
      "latitude": 48.9054187,
      "longitude": 1.8876409,
      "insee_code": "78916"
    },
    {
      "slug": "herme",
      "name": "Hermé",
      "postal_codes": [
        "77114"
      ],
      "department": "77",
      "latitude": 48.4823364,
      "longitude": 3.3460308,
      "insee_code": "77309"
    },
    {
      "slug": "hermeray",
      "name": "Hermeray",
      "postal_codes": [
        "78125"
      ],
      "department": "78",
      "latitude": 48.6373985,
      "longitude": 1.6754516,
      "insee_code": "78825"
    },
    {
      "slug": "herouville",
      "name": "Hérouville",
      "postal_codes": [
        "95300"
      ],
      "department": "95",
      "latitude": 49.0998904,
      "longitude": 2.1280641,
      "insee_code": "95164"
    },
    {
      "slug": "hodent",
      "name": "Hodent",
      "postal_codes": [
        "95420"
      ],
      "department": "95",
      "latitude": 49.144443,
      "longitude": 1.7663397,
      "insee_code": "95026"
    },
    {
      "slug": "hondevilliers",
      "name": "Hondevilliers",
      "postal_codes": [
        "77510"
      ],
      "department": "77",
      "latitude": 48.900902,
      "longitude": 3.3080522,
      "insee_code": "77428"
    },
    {
      "slug": "ichy",
      "name": "Ichy",
      "postal_codes": [
        "77890"
      ],
      "department": "77",
      "latitude": 48.2038979,
      "longitude": 2.5459574,
      "insee_code": "77453"
    },
    {
      "slug": "isles-les-meldeuses",
      "name": "Isles-les-Meldeuses",
      "postal_codes": [
        "77440"
      ],
      "department": "77",
      "latitude": 49.0011935,
      "longitude": 2.9999725,
      "insee_code": "77204"
    },
    {
      "slug": "isles-les-villenoy",
      "name": "Isles-lès-Villenoy",
      "postal_codes": [
        "77450"
      ],
      "department": "77",
      "latitude": 48.9124876,
      "longitude": 2.8259562,
      "insee_code": "77647"
    },
    {
      "slug": "iverny",
      "name": "Iverny",
      "postal_codes": [
        "77165"
      ],
      "department": "77",
      "latitude": 48.6956432,
      "longitude": 2.6032252,
      "insee_code": "77646"
    },
    {
      "slug": "jablines",
      "name": "Jablines",
      "postal_codes": [
        "77450"
      ],
      "department": "77",
      "latitude": 48.9175496,
      "longitude": 2.7648157,
      "insee_code": "77454"
    },
    {
      "slug": "jagny-sous-bois",
      "name": "Jagny-sous-Bois",
      "postal_codes": [
        "95850"
      ],
      "department": "95",
      "latitude": 49.0781143,
      "longitude": 2.4433663,
      "insee_code": "95202"
    },
    {
      "slug": "jaignes",
      "name": "Jaignes",
      "postal_codes": [
        "77440"
      ],
      "department": "77",
      "latitude": 48.4142411,
      "longitude": 2.7478681,
      "insee_code": "77210"
    },
    {
      "slug": "jambville",
      "name": "Jambville",
      "postal_codes": [
        "78440"
      ],
      "department": "78",
      "latitude": 49.0473952,
      "longitude": 1.8509554,
      "insee_code": "78823"
    },
    {
      "slug": "janville-sur-juine",
      "name": "Janville-sur-Juine",
      "postal_codes": [
        "91510"
      ],
      "department": "91",
      "latitude": 48.5145802,
      "longitude": 2.2620863,
      "insee_code": "91845"
    },
    {
      "slug": "janvry",
      "name": "Janvry",
      "postal_codes": [
        "91640"
      ],
      "department": "91",
      "latitude": 48.6473322,
      "longitude": 2.1529439,
      "insee_code": "91705"
    },
    {
      "slug": "jaulnes",
      "name": "Jaulnes",
      "postal_codes": [
        "77480"
      ],
      "department": "77",
      "latitude": 48.4176248,
      "longitude": 3.2717014,
      "insee_code": "77278"
    },
    {
      "slug": "jeufosse",
      "name": "Jeufosse",
      "postal_codes": [
        "78270"
      ],
      "department": "78",
      "latitude": 49.0093544,
      "longitude": 1.9690833,
      "insee_code": "78740"
    },
    {
      "slug": "jossigny",
      "name": "Jossigny",
      "postal_codes": [
        "77600"
      ],
      "department": "77",
      "latitude": 48.8386762,
      "longitude": 2.7531163,
      "insee_code": "77435"
    },
    {
      "slug": "jouy-le-chatel",
      "name": "Jouy-le-Châtel",
      "postal_codes": [
        "77970"
      ],
      "department": "77",
      "latitude": 48.8186343,
      "longitude": 2.6113655,
      "insee_code": "77184"
    },
    {
      "slug": "jouy-mauvoisin",
      "name": "Jouy-Mauvoisin",
      "postal_codes": [
        "78200"
      ],
      "department": "78",
      "latitude": 48.7430878,
      "longitude": 2.0872208,
      "insee_code": "78772"
    },
    {
      "slug": "jouy-sur-morin",
      "name": "Jouy-sur-Morin",
      "postal_codes": [
        "77320"
      ],
      "department": "77",
      "latitude": 48.7873743,
      "longitude": 3.2814414,
      "insee_code": "77295"
    },
    {
      "slug": "juilly",
      "name": "Juilly",
      "postal_codes": [
        "77230"
      ],
      "department": "77",
      "latitude": 49.02966,
      "longitude": 2.6991227,
      "insee_code": "77187"
    },
    {
      "slug": "jumeauville",
      "name": "Jumeauville",
      "postal_codes": [
        "78580"
      ],
      "department": "78",
      "latitude": 48.909512,
      "longitude": 1.7870931,
      "insee_code": "78833"
    },
    {
      "slug": "jutigny",
      "name": "Jutigny",
      "postal_codes": [
        "77650"
      ],
      "department": "77",
      "latitude": 48.4984972,
      "longitude": 3.2327083,
      "insee_code": "77306"
    },
    {
      "slug": "l-ha-les-roses",
      "name": "L\\'Haÿ-les-Roses",
      "postal_codes": [
        "94240"
      ],
      "department": "94",
      "latitude": 48.7790514,
      "longitude": 2.3373021,
      "insee_code": "94979"
    },
    {
      "slug": "l'etang-la-ville",
      "name": "L'ETANG-LA-VILLE",
      "postal_codes": [
        "78620"
      ],
      "department": "78",
      "latitude": 48.8707694,
      "longitude": 2.0726292,
      "insee_code": null
    },
    {
      "slug": "l'hay-les-roses",
      "name": "L'HAY-LES-ROSES",
      "postal_codes": [
        "94240"
      ],
      "department": "94",
      "latitude": 48.7790514,
      "longitude": 2.3373021,
      "insee_code": null
    },
    {
      "slug": "l'ile-saint-denis",
      "name": "L'ILE-SAINT-DENIS",
      "postal_codes": [
        "93450"
      ],
      "department": "93",
      "latitude": 48.9355885,
      "longitude": 2.3397438,
      "insee_code": null
    },
    {
      "slug": "l'isle-adam",
      "name": "L'ISLE-ADAM",
      "postal_codes": [
        "95290"
      ],
      "department": "95",
      "latitude": 49.1125294,
      "longitude": 2.2186324,
      "insee_code": null
    },
    {
      "slug": "la-boissiere-ecole",
      "name": "La Boissière-École",
      "postal_codes": [
        "78125"
      ],
      "department": "78",
      "latitude": 48.6818831,
      "longitude": 1.6415102,
      "insee_code": "78851"
    },
    {
      "slug": "la-brosse-montceaux",
      "name": "La Brosse-Montceaux",
      "postal_codes": [
        "77940"
      ],
      "department": "77",
      "latitude": 48.4098774,
      "longitude": 3.3203761,
      "insee_code": "77480"
    },
    {
      "slug": "la-celle-les-bordes",
      "name": "La Celle-les-Bordes",
      "postal_codes": [
        "78720"
      ],
      "department": "78",
      "latitude": 48.6374844,
      "longitude": 1.9542039,
      "insee_code": "78737"
    },
    {
      "slug": "la-celle-sur-morin",
      "name": "La Celle-sur-Morin",
      "postal_codes": [
        "77515"
      ],
      "department": "77",
      "latitude": 48.8105281,
      "longitude": 2.9545937,
      "insee_code": "77218"
    },
    {
      "slug": "la-chapelle-en-vexin",
      "name": "La Chapelle-en-Vexin",
      "postal_codes": [
        "95420"
      ],
      "department": "95",
      "latitude": 49.1865141,
      "longitude": 1.7309689,
      "insee_code": "95099"
    },
    {
      "slug": "la-chapelle-gauthier",
      "name": "La Chapelle-Gauthier",
      "postal_codes": [
        "77720"
      ],
      "department": "77",
      "latitude": 48.54948,
      "longitude": 2.89838,
      "insee_code": "77214"
    },
    {
      "slug": "la-chapelle-iger",
      "name": "La Chapelle-Iger",
      "postal_codes": [
        "77540"
      ],
      "department": "77",
      "latitude": 48.8702275,
      "longitude": 2.6381628,
      "insee_code": "77360"
    },
    {
      "slug": "la-chapelle-moutils",
      "name": "La Chapelle-Moutils",
      "postal_codes": [
        "77320"
      ],
      "department": "77",
      "latitude": 48.753853,
      "longitude": 3.3847823,
      "insee_code": "77242"
    },
    {
      "slug": "la-chapelle-rablais",
      "name": "La Chapelle-Rablais",
      "postal_codes": [
        "77370"
      ],
      "department": "77",
      "latitude": 48.5119093,
      "longitude": 2.9717314,
      "insee_code": "77559"
    },
    {
      "slug": "la-chapelle-saint-sulpice",
      "name": "La Chapelle-Saint-Sulpice",
      "postal_codes": [
        "77160"
      ],
      "department": "77",
      "latitude": 48.5561474,
      "longitude": 3.183602,
      "insee_code": "77569"
    },
    {
      "slug": "la-croix-en-brie",
      "name": "La Croix-en-Brie",
      "postal_codes": [
        "77370"
      ],
      "department": "77",
      "latitude": 48.4057677,
      "longitude": 2.8487967,
      "insee_code": "77670"
    },
    {
      "slug": "la-falaise",
      "name": "La Falaise",
      "postal_codes": [
        "78410"
      ],
      "department": "78",
      "latitude": 48.9445736,
      "longitude": 1.8324087,
      "insee_code": "78726"
    },
    {
      "slug": "la-foret-le-roi",
      "name": "La Forêt-le-Roi",
      "postal_codes": [
        "91410"
      ],
      "department": "91",
      "latitude": 48.4756982,
      "longitude": 2.0398671,
      "insee_code": "91843"
    },
    {
      "slug": "la-foret-sainte-croix",
      "name": "La Forêt-Sainte-Croix",
      "postal_codes": [
        "91150"
      ],
      "department": "91",
      "latitude": 48.3829945,
      "longitude": 2.2289387,
      "insee_code": "91814"
    },
    {
      "slug": "la-genevraye",
      "name": "La Genevraye",
      "postal_codes": [
        "77690"
      ],
      "department": "77",
      "latitude": 48.3174889,
      "longitude": 2.7717117,
      "insee_code": "77251"
    },
    {
      "slug": "la-haute-maison",
      "name": "La Haute-Maison",
      "postal_codes": [
        "77580"
      ],
      "department": "77",
      "latitude": 48.7465857,
      "longitude": 2.7605233,
      "insee_code": "77220"
    },
    {
      "slug": "la-hauteville",
      "name": "La Hauteville",
      "postal_codes": [
        "78113"
      ],
      "department": "78",
      "latitude": 48.7773564,
      "longitude": 1.6690972,
      "insee_code": "78950"
    },
    {
      "slug": "la-houssaye-en-brie",
      "name": "La Houssaye-en-Brie",
      "postal_codes": [
        "77610"
      ],
      "department": "77",
      "latitude": 48.7531379,
      "longitude": 2.8718053,
      "insee_code": "77518"
    },
    {
      "slug": "la-madeleine-sur-loing",
      "name": "La Madeleine-sur-Loing",
      "postal_codes": [
        "77570"
      ],
      "department": "77",
      "latitude": 48.2079267,
      "longitude": 2.7028699,
      "insee_code": "77626"
    },
    {
      "slug": "la-queue-les-yvelines",
      "name": "La Queue-les-Yvelines",
      "postal_codes": [
        "78940"
      ],
      "department": "78",
      "latitude": 48.8065092,
      "longitude": 1.7646761,
      "insee_code": "78831"
    },
    {
      "slug": "la-roche-guyon",
      "name": "La Roche-Guyon",
      "postal_codes": [
        "95780"
      ],
      "department": "95",
      "latitude": 49.0810715,
      "longitude": 1.6305766,
      "insee_code": "95173"
    },
    {
      "slug": "la-tombe",
      "name": "La Tombe",
      "postal_codes": [
        "77130"
      ],
      "department": "77",
      "latitude": 48.3653429,
      "longitude": 3.0923132,
      "insee_code": "77688"
    },
    {
      "slug": "la-tretoire",
      "name": "La Trétoire",
      "postal_codes": [
        "77510"
      ],
      "department": "77",
      "latitude": 48.8738577,
      "longitude": 3.2511841,
      "insee_code": "77243"
    },
    {
      "slug": "la-villeneuve-en-chevrie",
      "name": "La Villeneuve-en-Chevrie",
      "postal_codes": [
        "78270"
      ],
      "department": "78",
      "latitude": 49.0155584,
      "longitude": 1.5278831,
      "insee_code": "78834"
    },
    {
      "slug": "labbeville",
      "name": "Labbeville",
      "postal_codes": [
        "95690"
      ],
      "department": "95",
      "latitude": 49.1365834,
      "longitude": 2.1449795,
      "insee_code": "95127"
    },
    {
      "slug": "lainville-en-vexin",
      "name": "Lainville-en-Vexin",
      "postal_codes": [
        "78440"
      ],
      "department": "78",
      "latitude": 49.0604462,
      "longitude": 1.8159203,
      "insee_code": "78776"
    },
    {
      "slug": "larchant",
      "name": "Larchant",
      "postal_codes": [
        "77760"
      ],
      "department": "77",
      "latitude": 48.2842874,
      "longitude": 2.5960705,
      "insee_code": "77283"
    },
    {
      "slug": "lassy",
      "name": "Lassy",
      "postal_codes": [
        "95270"
      ],
      "department": "95",
      "latitude": 43.7078732,
      "longitude": 1.3819016,
      "insee_code": "95080"
    },
    {
      "slug": "laval-en-brie",
      "name": "Laval-en-Brie",
      "postal_codes": [
        "77148"
      ],
      "department": "77",
      "latitude": 48.4240878,
      "longitude": 2.9966622,
      "insee_code": "77326"
    },
    {
      "slug": "le-bellay-en-vexin",
      "name": "Le Bellay-en-Vexin",
      "postal_codes": [
        "95750"
      ],
      "department": "95",
      "latitude": 49.15127,
      "longitude": 1.88764,
      "insee_code": "95097"
    },
    {
      "slug": "le-heaulme",
      "name": "Le Heaulme",
      "postal_codes": [
        "95640"
      ],
      "department": "95",
      "latitude": 49.1658092,
      "longitude": 2.0013435,
      "insee_code": "95047"
    },
    {
      "slug": "le-mesnil-amelot",
      "name": "Le Mesnil-Amelot",
      "postal_codes": [
        "77990"
      ],
      "department": "77",
      "latitude": 49.0261187,
      "longitude": 2.596128,
      "insee_code": "77274"
    },
    {
      "slug": "le-mesnil-aubry",
      "name": "Le Mesnil-Aubry",
      "postal_codes": [
        "95720"
      ],
      "department": "95",
      "latitude": 49.0517904,
      "longitude": 2.3984693,
      "insee_code": "95195"
    },
    {
      "slug": "le-perchay",
      "name": "Le Perchay",
      "postal_codes": [
        "95450"
      ],
      "department": "95",
      "latitude": 49.1101221,
      "longitude": 1.9331691,
      "insee_code": "95067"
    },
    {
      "slug": "le-pin",
      "name": "LE PIN",
      "postal_codes": [
        "77181"
      ],
      "department": "77",
      "latitude": 48.914453,
      "longitude": 2.629066,
      "insee_code": null
    },
    {
      "slug": "le-plessis-aux-bois",
      "name": "Le Plessis-aux-Bois",
      "postal_codes": [
        "77165"
      ],
      "department": "77",
      "latitude": 49.0030392,
      "longitude": 2.7684384,
      "insee_code": "77377"
    },
    {
      "slug": "le-plessis-feu-aussoux",
      "name": "Le Plessis-Feu-Aussoux",
      "postal_codes": [
        "77540"
      ],
      "department": "77",
      "latitude": 48.7132322,
      "longitude": 3.0334035,
      "insee_code": "77562"
    },
    {
      "slug": "le-plessis-gassot",
      "name": "Le Plessis-Gassot",
      "postal_codes": [
        "95720"
      ],
      "department": "95",
      "latitude": 49.0335856,
      "longitude": 2.4146228,
      "insee_code": "95183"
    },
    {
      "slug": "le-plessis-l-eveque",
      "name": "Le Plessis-l\\'Évêque",
      "postal_codes": [
        "77165"
      ],
      "department": "77",
      "latitude": 49.0080664,
      "longitude": 2.7837851,
      "insee_code": "77676"
    },
    {
      "slug": "le-plessis-l'eveque",
      "name": "LE PLESSIS-L'EVEQUE",
      "postal_codes": [
        "77165"
      ],
      "department": "77",
      "latitude": 49.0080664,
      "longitude": 2.7837851,
      "insee_code": null
    },
    {
      "slug": "le-plessis-luzarches",
      "name": "Le Plessis-Luzarches",
      "postal_codes": [
        "95270"
      ],
      "department": "95",
      "latitude": 49.0957781,
      "longitude": 2.4537867,
      "insee_code": "95037"
    },
    {
      "slug": "le-plessis-placy",
      "name": "Le Plessis-Placy",
      "postal_codes": [
        "77440"
      ],
      "department": "77",
      "latitude": 49.0556887,
      "longitude": 2.9895868,
      "insee_code": "77651"
    },
    {
      "slug": "le-tartre-gaudran",
      "name": "Le Tartre-Gaudran",
      "postal_codes": [
        "78113"
      ],
      "department": "78",
      "latitude": 48.6990073,
      "longitude": 1.5936653,
      "insee_code": "78717"
    },
    {
      "slug": "le-tertre-saint-denis",
      "name": "Le Tertre-Saint-Denis",
      "postal_codes": [
        "78980"
      ],
      "department": "78",
      "latitude": 48.9382265,
      "longitude": 1.6069841,
      "insee_code": "78703"
    },
    {
      "slug": "le-tremblay-sur-mauldre",
      "name": "Le Tremblay-sur-Mauldre",
      "postal_codes": [
        "78490"
      ],
      "department": "78",
      "latitude": 48.7780585,
      "longitude": 1.8769547,
      "insee_code": "78936"
    },
    {
      "slug": "le-val-saint-germain",
      "name": "Le Val-Saint-Germain",
      "postal_codes": [
        "91530"
      ],
      "department": "91",
      "latitude": 48.5654209,
      "longitude": 2.0603904,
      "insee_code": "91798"
    },
    {
      "slug": "le-vaudoue",
      "name": "Le Vaudoué",
      "postal_codes": [
        "77123"
      ],
      "department": "77",
      "latitude": 48.3580841,
      "longitude": 2.5195035,
      "insee_code": "77355"
    },
    {
      "slug": "lechelle",
      "name": "Léchelle",
      "postal_codes": [
        "77171"
      ],
      "department": "77",
      "latitude": 48.5780745,
      "longitude": 3.3869374,
      "insee_code": "77499"
    },
    {
      "slug": "les-alluets-le-roi",
      "name": "Les Alluets-le-Roi",
      "postal_codes": [
        "78580"
      ],
      "department": "78",
      "latitude": 48.9139616,
      "longitude": 1.9177847,
      "insee_code": "78871"
    },
    {
      "slug": "les-breviaires",
      "name": "Les Bréviaires",
      "postal_codes": [
        "78610"
      ],
      "department": "78",
      "latitude": 48.7105582,
      "longitude": 1.8121173,
      "insee_code": "78704"
    },
    {
      "slug": "les-chapelles-bourbon",
      "name": "Les Chapelles-Bourbon",
      "postal_codes": [
        "77610"
      ],
      "department": "77",
      "latitude": 48.7354692,
      "longitude": 2.8445238,
      "insee_code": "77188"
    },
    {
      "slug": "les-ecrennes",
      "name": "Les Écrennes",
      "postal_codes": [
        "77820"
      ],
      "department": "77",
      "latitude": 48.5031433,
      "longitude": 2.8600397,
      "insee_code": "77288"
    },
    {
      "slug": "les-granges-le-roi",
      "name": "Les Granges-le-Roi",
      "postal_codes": [
        "91410"
      ],
      "department": "91",
      "latitude": 48.5082001,
      "longitude": 2.0255325,
      "insee_code": "91778"
    },
    {
      "slug": "les-loges-en-josas",
      "name": "Les Loges-en-Josas",
      "postal_codes": [
        "78350"
      ],
      "department": "78",
      "latitude": 48.9989346,
      "longitude": 1.8433984,
      "insee_code": "78820"
    },
    {
      "slug": "les-marets",
      "name": "Les Marêts",
      "postal_codes": [
        "77560"
      ],
      "department": "77",
      "latitude": 48.6616117,
      "longitude": 3.3132397,
      "insee_code": "77475"
    },
    {
      "slug": "les-mesnuls",
      "name": "Les Mesnuls",
      "postal_codes": [
        "78490"
      ],
      "department": "78",
      "latitude": 48.7825438,
      "longitude": 2.0439616,
      "insee_code": "78885"
    },
    {
      "slug": "les-molieres",
      "name": "Les Molières",
      "postal_codes": [
        "91470"
      ],
      "department": "91",
      "latitude": 48.7095297,
      "longitude": 2.1760921,
      "insee_code": "91898"
    },
    {
      "slug": "les-ormes-sur-voulzie",
      "name": "Les Ormes-sur-Voulzie",
      "postal_codes": [
        "77134"
      ],
      "department": "77",
      "latitude": 48.4615634,
      "longitude": 3.2269469,
      "insee_code": "77353"
    },